{"nhits": 176, "parameters": {"dataset": ["polling-stations"], "timezone": "UTC", "rows": 1000, "format": "json"}, "records": [{"datasetid": "polling-stations", "recordid": "39af99da119b6cb214c07d443657c2d9c79c3b6d", "fields": {"polling_district": "FWDD", "location_name": "Oasis Academy Connaught", "objectid": 3, "uprn_2": "000000143933", "locality": "Knowle", "dual_stn": "Used by FWDD and FWDB", "geo_point_2d": [51.4272734409417, -2.586934743872749], "street": "Melvin Square", "postcode": "BS4 1NH", "dual": "Yes", "uprn": 143933, "geo_shape": {"type": "Point", "coordinates": [-2.586934743872749, 51.4272734409417]}, "pao": "Oasis Academy Connaught"}, "geometry": {"type": "Point", "coordinates": [-2.586934743872749, 51.4272734409417]}, "record_timestamp": "2018-01-09T02:01:06+00:00"}, {"datasetid": "polling-stations", "recordid": "9968268d4570432dd4cecf69394789b05a07b06c", "fields": {"polling_district": "SMDA", "location_name": "Bristol Community Links North", "objectid": 7, "uprn_2": "000000003641", "locality": "Southmead", "geo_point_2d": [51.509426258026615, -2.6000796419425], "street": "Lanercost Road", "postcode": "BS10 6HZ", "dual": "No", "uprn": 3641, "geo_shape": {"type": "Point", "coordinates": [-2.6000796419425, 51.509426258026615]}, "pao": "Lanercost Resource And Activity Centre"}, "geometry": {"type": "Point", "coordinates": [-2.6000796419425, 51.509426258026615]}, "record_timestamp": "2018-01-09T02:01:06+00:00"}, {"datasetid": "polling-stations", "recordid": "e9ba45fa74f4f0d72ce5ebba5f8796266604f417", "fields": {"polling_district": "BRWE", "location_name": "Bristol South of Performing Arts, White Hart Lodge", "objectid": 9, "uprn_2": "000000137471", "locality": "Brislington", "geo_point_2d": [51.43329840305338, -2.547826363957887], "street": "Brislington Hill", "postcode": "BS4 5BD", "dual": "No", "uprn": 137471, "geo_shape": {"type": "Point", "coordinates": [-2.547826363957887, 51.43329840305338]}, "pao": "Bristol South of Performing Arts (Formely White Hart Pub)"}, "geometry": {"type": "Point", "coordinates": [-2.547826363957887, 51.43329840305338]}, "record_timestamp": "2018-01-09T02:01:06+00:00"}, {"datasetid": "polling-stations", "recordid": "1133da76ae98ae0c6e647babcad272b79b502e0e", "fields": {"polling_district": "STBE", "location_name": "Trinity College", "objectid": 12, "uprn_2": "000000051600", "locality": "Stoke Bishop", "dual_stn": "STBE & STBF", "geo_point_2d": [51.47683034795589, -2.6292816574686], "street": "Stoke Hill", "postcode": "BS9 1JP", "dual": "Yes", "uprn": 51366, "geo_shape": {"type": "Point", "coordinates": [-2.6292816574686, 51.47683034795589]}, "pao": "Trinity College"}, "geometry": {"type": "Point", "coordinates": [-2.6292816574686, 51.47683034795589]}, "record_timestamp": "2018-01-09T02:01:06+00:00"}, {"datasetid": "polling-stations", "recordid": "99bbac89152c7bef5b906817b7366537d99dfc10", "fields": {"polling_district": "KNLC", "location_name": "Redcatch Community Centre", "objectid": 16, "uprn_2": "000000134783", "locality": "Knowle", "dual_stn": "Used by KNLC and KNLB", "geo_point_2d": [51.43514979760758, -2.570621398287995], "street": "Redcatch Road", "postcode": "BS4 2EP", "dual": "Yes", "uprn": 134783, "geo_shape": {"type": "Point", "coordinates": [-2.570621398287995, 51.43514979760758]}, "pao": "Redcatch Community Centre"}, "geometry": {"type": "Point", "coordinates": [-2.570621398287995, 51.43514979760758]}, "record_timestamp": "2018-01-09T02:01:06+00:00"}, {"datasetid": "polling-stations", "recordid": "dc57d95889224ca94ea8b8dc0b0bf292a589213a", "fields": {"polling_district": "BREC", "location_name": "St Anne's Park Children's Centre", "objectid": 17, "uprn_2": "000000111149", "locality": "St Annes", "geo_point_2d": [51.44960244995198, -2.5427110468155742], "street": "Lichfield Road", "postcode": "BS4 4BJ", "dual": "No", "uprn": 111149, "geo_shape": {"type": "Point", "coordinates": [-2.5427110468155742, 51.44960244995198]}, "pao": "St Anne's Park Children's Centre"}, "geometry": {"type": "Point", "coordinates": [-2.5427110468155742, 51.44960244995198]}, "record_timestamp": "2018-01-09T02:01:06+00:00"}, {"datasetid": "polling-stations", "recordid": "f011193ff29f0c0fad23cee3968b8ac4015aa724", "fields": {"polling_district": "FRVB", "location_name": "Stapleton And Begbrook Community Association", "objectid": 22, "uprn_2": "000000026089", "locality": "Stapleton", "dual_stn": "Used by FRVB and FRVA", "geo_point_2d": [51.49099560065077, -2.5365918750668888], "street": "Frenchay Park Road", "postcode": "BS16 1HY", "dual": "Yes", "uprn": 26089, "geo_shape": {"type": "Point", "coordinates": [-2.5365918750668888, 51.49099560065077]}, "pao": "Stapleton And Begbrook Community Association"}, "geometry": {"type": "Point", "coordinates": [-2.5365918750668888, 51.49099560065077]}, "record_timestamp": "2018-01-09T02:01:06+00:00"}, {"datasetid": "polling-stations", "recordid": "2e982991ef0fae3368ba4855da335da4b63fc1f6", "fields": {"dual_stn": "WEHH & WEHF", "location_name": "St Peters Church", "objectid": 53, "uprn_2": "000000289629", "geo_point_2d": [51.485618152040814, -2.607489108424792], "polling_district": "WEHH", "street": "The Drive", "postcode": "BS9 4LD", "dual": "Yes", "uprn": 289629, "geo_shape": {"type": "Point", "coordinates": [-2.607489108424792, 51.485618152040814]}, "pao": "St Peters Church"}, "geometry": {"type": "Point", "coordinates": [-2.607489108424792, 51.485618152040814]}, "record_timestamp": "2018-01-09T02:01:06+00:00"}, {"datasetid": "polling-stations", "recordid": "f3c5fd24e53f489d582a746442550df5a1c7e26a", "fields": {"polling_district": "AVLC", "location_name": "Lawrence Weston Baptist Church", "objectid": 57, "uprn_2": "000000303789", "locality": "Lawrence Weston", "geo_point_2d": [51.49885286797037, -2.666150557278394], "street": "Long Cross", "postcode": "BS11 0HL", "dual": "No", "uprn": 324620, "geo_shape": {"type": "Point", "coordinates": [-2.666150557278394, 51.49885286797037]}, "pao": "117 -119 Lawrence Weston Baptist Church"}, "geometry": {"type": "Point", "coordinates": [-2.666150557278394, 51.49885286797037]}, "record_timestamp": "2018-01-09T02:01:06+00:00"}, {"datasetid": "polling-stations", "recordid": "2e93b6249b7c9c990d2b6225c15869275acc0ba8", "fields": {"polling_district": "HORF", "location_name": "Horfield Methodist Church Hall", "objectid": 75, "uprn_2": "000000184119", "locality": "Horfield", "geo_point_2d": [51.48654138291128, -2.585913233193295], "street": "Churchways Avenue", "postcode": "BS7 8SN", "dual": "No", "uprn": 184119, "geo_shape": {"type": "Point", "coordinates": [-2.585913233193295, 51.48654138291128]}, "pao": "Horfield Methodist Church Hall"}, "geometry": {"type": "Point", "coordinates": [-2.585913233193295, 51.48654138291128]}, "record_timestamp": "2018-01-09T02:01:06+00:00"}, {"datasetid": "polling-stations", "recordid": "c61f46b24ed39262ef52fb5cba433cffaedea264", "fields": {"polling_district": "STBA", "location_name": "St Edyth's Church Hall", "objectid": 76, "uprn_2": "000000278823", "locality": "Sea Mills", "geo_point_2d": [51.48511370095664, -2.650526156480327], "street": "Avonleaze", "postcode": "BS9 2HU", "dual": "No", "uprn": 278823, "geo_shape": {"type": "Point", "coordinates": [-2.650526156480327, 51.48511370095664]}, "pao": "St Edyths Church"}, "geometry": {"type": "Point", "coordinates": [-2.650526156480327, 51.48511370095664]}, "record_timestamp": "2018-01-09T02:01:06+00:00"}, {"datasetid": "polling-stations", "recordid": "1c328463c04e448e502407c1b642dd1e57afd012", "fields": {"dual_stn": "BISB and BISC", "location_name": "Blenheim Scout Hut", "objectid": 95, "uprn_2": "000000347602", "geo_point_2d": [51.42499886058391, -2.616459765900213], "polling_district": "BISB", "street": "Banwell Close", "postcode": "BS13 7DT", "dual": "Yes", "uprn": 347602, "geo_shape": {"type": "Point", "coordinates": [-2.616459765900213, 51.42499886058391]}, "pao": "Blenheim Scout Centre"}, "geometry": {"type": "Point", "coordinates": [-2.616459765900213, 51.42499886058391]}, "record_timestamp": "2018-01-09T02:01:06+00:00"}, {"datasetid": "polling-stations", "recordid": "86d0e61e46248a947f31e116070abea4699631cc", "fields": {"polling_district": "CLIC", "location_name": "Clifton Library", "objectid": 110, "uprn_2": "000000103836", "locality": "Clifton", "dual_stn": "Used by CLIC and CLID", "geo_point_2d": [51.45452981895294, -2.6196088437641], "street": "Princess Victoria Street", "postcode": "BS8 4BX", "dual": "Yes", "uprn": 103836, "geo_shape": {"type": "Point", "coordinates": [-2.6196088437641, 51.45452981895294]}, "pao": "Clifton Library"}, "geometry": {"type": "Point", "coordinates": [-2.6196088437641, 51.45452981895294]}, "record_timestamp": "2018-01-09T02:01:06+00:00"}, {"datasetid": "polling-stations", "recordid": "4b733b14b7109e4ac9d23abed9219d2c21e4b4c8", "fields": {"polling_district": "KNLE", "location_name": "Knowle Community Association Hall", "objectid": 111, "uprn_2": "000000141073", "locality": "Knowle", "dual_stn": "Used by KNLE and KNLF", "geo_point_2d": [51.43143345167578, -2.571193623184024], "street": "The Square", "postcode": "BS4 2SS", "dual": "Yes", "uprn": 141073, "geo_shape": {"type": "Point", "coordinates": [-2.571193623184024, 51.43143345167578]}, "pao": "Knowle Community Association Annexe"}, "geometry": {"type": "Point", "coordinates": [-2.571193623184024, 51.43143345167578]}, "record_timestamp": "2018-01-09T02:01:06+00:00"}, {"datasetid": "polling-stations", "recordid": "032d792da5fb43ff793e45b4a91848183af04fec", "fields": {"polling_district": "HILB", "location_name": "St John's Parish Hall", "objectid": 118, "uprn_2": "000000278825", "locality": "Fishponds", "dual_stn": "HILB & HILD", "geo_point_2d": [51.4743170094339, -2.530492810087692], "street": "Lodge Causeway", "postcode": "BS16 3QG", "dual": "Yes", "uprn": 278825, "geo_shape": {"type": "Point", "coordinates": [-2.530492810087692, 51.4743170094339]}, "pao": "St Johns Parish Hall"}, "geometry": {"type": "Point", "coordinates": [-2.530492810087692, 51.4743170094339]}, "record_timestamp": "2018-01-09T02:01:06+00:00"}, {"datasetid": "polling-stations", "recordid": "26ca3571a44b76ff8ba64e8e862b82d66f9641db", "fields": {"polling_district": "HWPH", "location_name": "St Augustines Church", "objectid": 119, "uprn_2": "000000359372", "locality": "Whitchurch", "dual_stn": "Used by HWPH and HWPJ", "geo_point_2d": [51.40690526939943, -2.571694806399191], "street": "Whitchurch Lane", "postcode": "BS14 0LL", "dual": "Yes", "uprn": 359372, "geo_shape": {"type": "Point", "coordinates": [-2.571694806399191, 51.40690526939943]}, "pao": "St Augustines Church"}, "geometry": {"type": "Point", "coordinates": [-2.571694806399191, 51.40690526939943]}, "record_timestamp": "2018-01-09T02:01:06+00:00"}, {"datasetid": "polling-stations", "recordid": "be60bd5325b1f904207bca94db6e73b142d58f57", "fields": {"polling_district": "STWE", "location_name": "Stockwood Library", "objectid": 152, "uprn_2": "000000159907", "locality": "Stockwood", "dual_stn": "Used by STWE and STWF", "geo_point_2d": [51.412701914039616, -2.547091164962211], "street": "Stockwood Road", "postcode": "BS14 8PL", "dual": "Yes", "uprn": 159907, "geo_shape": {"type": "Point", "coordinates": [-2.547091164962211, 51.412701914039616]}, "pao": "Stockwood Library"}, "geometry": {"type": "Point", "coordinates": [-2.547091164962211, 51.412701914039616]}, "record_timestamp": "2018-01-09T02:01:06+00:00"}, {"datasetid": "polling-stations", "recordid": "462ea10512476ccc54dfc6622c32d4745967a6b1", "fields": {"polling_district": "BEDE", "location_name": "South Bristol Methodist Church Hall", "objectid": 156, "uprn_2": "000000123434", "geo_point_2d": [51.44033107318973, -2.602540010931705], "street": "British Road", "postcode": "BS3 3BW", "dual": "No", "uprn": 123434, "geo_shape": {"type": "Point", "coordinates": [-2.602540010931705, 51.44033107318973]}, "access_desription": "Church Hall", "pao": "South Bristol Methodist Church"}, "geometry": {"type": "Point", "coordinates": [-2.602540010931705, 51.44033107318973]}, "record_timestamp": "2018-01-09T02:01:06+00:00"}, {"datasetid": "polling-stations", "recordid": "280ed254b3ad3890fa76f3c4ac54d0dd46258d41", "fields": {"polling_district": "SVLC", "location_name": "The Southville Centre", "objectid": 159, "uprn_2": "000000116731", "locality": "Southville", "geo_point_2d": [51.44380439949063, -2.60553541146884], "street": "Beauley Road", "postcode": "BS3 1QJ", "dual": "No", "uprn": 116731, "geo_shape": {"type": "Point", "coordinates": [-2.60553541146884, 51.44380439949063]}, "pao": "The Southville Centre"}, "geometry": {"type": "Point", "coordinates": [-2.60553541146884, 51.44380439949063]}, "record_timestamp": "2018-01-09T02:01:06+00:00"}, {"datasetid": "polling-stations", "recordid": "21c780f318e3983b607535b3c4eab0538bf50fd9", "fields": {"polling_district": "CLDE", "location_name": "All Saints Church", "objectid": 641, "uprn_2": "000000317524", "locality": "Clifton", "geo_point_2d": [51.46220276749129, -2.616134317623673], "street": "Pembroke Road", "postcode": "BS8 3ED", "dual": "No", "uprn": 317524, "geo_shape": {"type": "Point", "coordinates": [-2.616134317623673, 51.46220276749129]}, "pao": "All Saints Church"}, "geometry": {"type": "Point", "coordinates": [-2.616134317623673, 51.46220276749129]}, "record_timestamp": "2018-01-09T02:01:06+00:00"}, {"datasetid": "polling-stations", "recordid": "b906b24e53ce2ae5fcb09bc8c9d658bd6f8e5098", "fields": {"polling_district": "BRWD", "location_name": "Holymead Primary School", "objectid": 10, "uprn_2": "000000129229", "locality": "Brislington", "geo_point_2d": [51.43783665885774, -2.552196698955707], "street": "Wick Road", "postcode": "BS4 4HB", "dual": "No", "uprn": 129229, "geo_shape": {"type": "Point", "coordinates": [-2.552196698955707, 51.43783665885774]}, "access_desription": "Rossell Road Entrance", "pao": "Holymead Junior School"}, "geometry": {"type": "Point", "coordinates": [-2.552196698955707, 51.43783665885774]}, "record_timestamp": "2018-01-09T02:01:06+00:00"}, {"datasetid": "polling-stations", "recordid": "a8510ab6922dbadecfbb01520f429af0ec329f82", "fields": {"polling_district": "SVLE", "location_name": "The Salvation Army", "objectid": 28, "uprn_2": "000000119640", "locality": "Southville", "dual_stn": "Used by SVLE and SVLD", "geo_point_2d": [51.4418773656447, -2.601220086079338], "street": "Dean Lane", "postcode": "BS3 1BS", "dual": "Yes", "uprn": 225617, "geo_shape": {"type": "Point", "coordinates": [-2.601220086079338, 51.4418773656447]}, "pao": "The Salvation Army"}, "geometry": {"type": "Point", "coordinates": [-2.601220086079338, 51.4418773656447]}, "record_timestamp": "2018-01-09T02:01:06+00:00"}, {"datasetid": "polling-stations", "recordid": "a609710c7066cda9bcd765e12bbc945951845360", "fields": {"polling_district": "LAWE", "location_name": "Salvation Army Hall", "objectid": 37, "uprn_2": "000000098492", "locality": "St Philips", "geo_point_2d": [51.45705682866267, -2.571772600094642], "street": "Hassell Drive", "postcode": "BS2 0AN", "dual": "No", "uprn": 98492, "geo_shape": {"type": "Point", "coordinates": [-2.571772600094642, 51.45705682866267]}, "pao": "Salvation Army"}, "geometry": {"type": "Point", "coordinates": [-2.571772600094642, 51.45705682866267]}, "record_timestamp": "2018-01-09T02:01:06+00:00"}, {"datasetid": "polling-stations", "recordid": "55226def7e0a9e0aa81af4ffa7a596f9d31dc7ce", "fields": {"polling_district": "SGCH", "location_name": "Two Mile Hill Primary School", "objectid": 44, "uprn_2": "000000088516", "locality": "St George", "dual_stn": "Used by SGCH and SGCD", "geo_point_2d": [51.46132777900296, -2.519647302910181], "street": "Kingsway", "postcode": "BS15 8AA", "dual": "Yes", "uprn": 88516, "geo_shape": {"type": "Point", "coordinates": [-2.519647302910181, 51.46132777900296]}, "pao": "Two Mile Hill Primary School"}, "geometry": {"type": "Point", "coordinates": [-2.519647302910181, 51.46132777900296]}, "record_timestamp": "2018-01-09T02:01:06+00:00"}, {"datasetid": "polling-stations", "recordid": "410237fd9c784b444479a36a08aeb5c629ee8f19", "fields": {"polling_district": "AVLE", "location_name": "Lawrence Weston Youth Centre", "objectid": 45, "uprn_2": "000000006458", "locality": "Lawrence Weston", "geo_point_2d": [51.504949398415334, -2.653719084710356], "street": "Long Cross", "postcode": "BS11 0RX", "dual": "No", "uprn": 6458, "geo_shape": {"type": "Point", "coordinates": [-2.653719084710356, 51.504949398415334]}, "access_desription": "Lawrence Weston Road", "pao": "Lawrence Weston Youth Centre"}, "geometry": {"type": "Point", "coordinates": [-2.653719084710356, 51.504949398415334]}, "record_timestamp": "2018-01-09T02:01:06+00:00"}, {"datasetid": "polling-stations", "recordid": "a14628f052942a6b2f2b34a4a3a4476582c221bd", "fields": {"polling_district": "CEND", "location_name": "The Register Office", "objectid": 52, "uprn_2": "000000272877", "locality": "City Centre", "dual_stn": "CEND and CENB", "geo_point_2d": [51.45495329238804, -2.593377689058384], "street": "Corn Street", "postcode": "BS1 1JG", "dual": "Yes", "uprn": 272877, "geo_shape": {"type": "Point", "coordinates": [-2.593377689058384, 51.45495329238804]}, "pao": "Register Office"}, "geometry": {"type": "Point", "coordinates": [-2.593377689058384, 51.45495329238804]}, "record_timestamp": "2018-01-09T02:01:06+00:00"}, {"datasetid": "polling-stations", "recordid": "0c89148d46184d30798e97ceadaae844b6293b1e", "fields": {"polling_district": "LOCA", "location_name": "Horfield Library", "objectid": 60, "uprn_2": "000000018539", "locality": "Horfield", "geo_point_2d": [51.49478389497378, -2.573958853435962], "street": "Filton Avenue", "postcode": "BS7 0BD", "dual": "No", "uprn": 18539, "geo_shape": {"type": "Point", "coordinates": [-2.573958853435962, 51.49478389497378]}, "pao": "Horfield Library"}, "geometry": {"type": "Point", "coordinates": [-2.573958853435962, 51.49478389497378]}, "record_timestamp": "2018-01-09T02:01:06+00:00"}, {"datasetid": "polling-stations", "recordid": "7dc208032ed3444e5ad971949db9236d7ec5d66e", "fields": {"polling_district": "KNLA", "location_name": "The Park", "objectid": 61, "uprn_2": "000000308760", "locality": "Knowle", "dual_stn": "Used by KNLA and KNLD", "geo_point_2d": [51.429712448109804, -2.581068483765789], "street": "Daventry Road", "postcode": "BS4 1DQ", "dual": "Yes", "uprn": 308760, "geo_shape": {"type": "Point", "coordinates": [-2.581068483765789, 51.429712448109804]}, "pao": "The Park"}, "geometry": {"type": "Point", "coordinates": [-2.581068483765789, 51.429712448109804]}, "record_timestamp": "2018-01-09T02:01:06+00:00"}, {"datasetid": "polling-stations", "recordid": "50927c4373245fd851f06612cfb84244134a2137", "fields": {"polling_district": "FRVD", "location_name": "The Vassall Centre", "objectid": 84, "uprn_2": "000000273267", "locality": "Fishponds", "dual_stn": "FRVC and FRVD", "geo_point_2d": [51.48563948920589, -2.524760914145781], "street": "Gill Avenue", "postcode": "BS16 2QQ", "dual": "Yes", "uprn": 273267, "geo_shape": {"type": "Point", "coordinates": [-2.524760914145781, 51.48563948920589]}, "pao": "The Vassall Centre"}, "geometry": {"type": "Point", "coordinates": [-2.524760914145781, 51.48563948920589]}, "record_timestamp": "2018-01-09T02:01:06+00:00"}, {"datasetid": "polling-stations", "recordid": "00781a4039c655f29460fb42c0755f475d4e98bc", "fields": {"polling_district": "STWG", "location_name": "Church Of Christ The Servant", "uprn_2": "000000308830", "objectid": 85, "geo_point_2d": [51.41047831595152, -2.547084356300224], "street": "Stockwood Road", "postcode": "BS14 8HS", "dual": "No", "uprn": 308830, "geo_shape": {"type": "Point", "coordinates": [-2.547084356300224, 51.41047831595152]}, "pao": "Church Of Christ The Servant"}, "geometry": {"type": "Point", "coordinates": [-2.547084356300224, 51.41047831595152]}, "record_timestamp": "2018-01-09T02:01:06+00:00"}, {"datasetid": "polling-stations", "recordid": "7ad308c753d5de04458053f134320a93641541fa", "fields": {"dual_stn": "Used by BEDA & BEDC", "location_name": "Bristol St Aldhelms Scout Hut", "objectid": 86, "uprn_2": "000000124231", "geo_point_2d": [51.43842549486868, -2.61883062152062], "polling_district": "BEDA", "street": "Ashton Road", "postcode": "BS3 2DL", "dual": "Yes", "uprn": 278840, "geo_shape": {"type": "Point", "coordinates": [-2.61883062152062, 51.43842549486868]}, "pao": "229      Bristol St Aldhelms Scout Hut"}, "geometry": {"type": "Point", "coordinates": [-2.61883062152062, 51.43842549486868]}, "record_timestamp": "2018-01-09T02:01:06+00:00"}, {"datasetid": "polling-stations", "recordid": "9ac6f678525e46fc57425ff9f85d0cea5d0d1b68", "fields": {"polling_district": "LOCF", "location_name": "The Old Library - Eastville", "objectid": 96, "uprn_2": "000000181977", "locality": "Eastville", "geo_point_2d": [51.47666265830943, -2.569080420955578], "street": "Muller Road", "postcode": "BS5 6XP", "dual": "No", "uprn": 181977, "geo_shape": {"type": "Point", "coordinates": [-2.569080420955578, 51.47666265830943]}, "pao": "The Old Library  - Eastville"}, "geometry": {"type": "Point", "coordinates": [-2.569080420955578, 51.47666265830943]}, "record_timestamp": "2018-01-09T02:01:06+00:00"}, {"datasetid": "polling-stations", "recordid": "29dac7883d8a96fb56a487fd5a3fbdeac90a566a", "fields": {"polling_district": "LOCC", "location_name": "Filton Avenue Infants School", "objectid": 113, "uprn_2": "000000273657", "locality": "Horfield", "geo_point_2d": [51.490742346821435, -2.576673531324198], "street": "Lockleaze Road", "postcode": "BS7 9RP", "dual": "No", "uprn": 273657, "geo_shape": {"type": "Point", "coordinates": [-2.576673531324198, 51.490742346821435]}, "pao": "Filton Avenue Infants School"}, "geometry": {"type": "Point", "coordinates": [-2.576673531324198, 51.490742346821435]}, "record_timestamp": "2018-01-09T02:01:06+00:00"}, {"datasetid": "polling-stations", "recordid": "00d50ed6bd64595824dc9ebbfe39a586a7c23087", "fields": {"polling_district": "CENA", "location_name": "Bristol University Indoors Sports Centre", "objectid": 123, "uprn_2": "000000281697", "locality": "Clifton", "geo_point_2d": [51.45920327243938, -2.602788585815568], "street": "Tyndall Avenue", "postcode": "BS8 1TP", "dual": "No", "uprn": 281697, "geo_shape": {"type": "Point", "coordinates": [-2.602788585815568, 51.45920327243938]}, "pao": "Bristol University Indoors Sports Centre"}, "geometry": {"type": "Point", "coordinates": [-2.602788585815568, 51.45920327243938]}, "record_timestamp": "2018-01-09T02:01:06+00:00"}, {"datasetid": "polling-stations", "recordid": "36ca3a482bb3fc33d4ca5ab3b4a0e0247672f604", "fields": {"polling_district": "CLDD", "location_name": "Tyndale Baptist Church", "objectid": 124, "uprn_2": "000000075938", "locality": "Clifton", "geo_point_2d": [51.46552448385017, -2.6097241526489148], "street": "Whiteladies Road", "postcode": "BS8 2QG", "dual": "No", "uprn": 75938, "geo_shape": {"type": "Point", "coordinates": [-2.6097241526489148, 51.46552448385017]}, "pao": "Tyndale Baptist Church"}, "geometry": {"type": "Point", "coordinates": [-2.6097241526489148, 51.46552448385017]}, "record_timestamp": "2018-01-09T02:01:06+00:00"}, {"datasetid": "polling-stations", "recordid": "219bb994c2cb7a6a6498006447304b2692ba09c8", "fields": {"polling_district": "ESVG", "location_name": "Crofts End Church", "objectid": 129, "uprn_2": "000000073001", "locality": "Speedwell", "geo_point_2d": [51.46690619794941, -2.541722624626491], "street": "Crofts End Road", "postcode": "BS5 7UW", "dual": "No", "uprn": 73001, "geo_shape": {"type": "Point", "coordinates": [-2.541722624626491, 51.46690619794941]}, "pao": "1 Crofts End Church"}, "geometry": {"type": "Point", "coordinates": [-2.541722624626491, 51.46690619794941]}, "record_timestamp": "2018-01-09T02:01:06+00:00"}, {"datasetid": "polling-stations", "recordid": "7f0163516cba1f9352056c52421c6e24a782f7ce", "fields": {"polling_district": "AVLH", "location_name": "Stow House", "objectid": 130, "uprn_2": "000000038772", "locality": "Shirehampton", "geo_point_2d": [51.48347931896557, -2.672464665340497], "street": "Nibley Road", "postcode": "BS11 9UY", "dual": "No", "uprn": 38772, "geo_shape": {"type": "Point", "coordinates": [-2.672464665340497, 51.48347931896557]}, "pao": "Stow House"}, "geometry": {"type": "Point", "coordinates": [-2.672464665340497, 51.48347931896557]}, "record_timestamp": "2018-01-09T02:01:06+00:00"}, {"datasetid": "polling-stations", "recordid": "d0694ade54c5a92d92c3d00d5f48adee49bf4f04", "fields": {"polling_district": "AVLF", "location_name": "Jim O'Neil House", "objectid": 145, "uprn_2": "000000188363", "locality": "Shirehampton", "geo_point_2d": [51.49058222006751, -2.681888207920125], "street": "Kilminster Road", "postcode": "BS11 9ZE", "dual": "No", "uprn": 188363, "geo_shape": {"type": "Point", "coordinates": [-2.681888207920125, 51.49058222006751]}, "pao": "Jim O Neil House"}, "geometry": {"type": "Point", "coordinates": [-2.681888207920125, 51.49058222006751]}, "record_timestamp": "2018-01-09T02:01:06+00:00"}, {"datasetid": "polling-stations", "recordid": "3614a2a28b0b7270da43fc82a2518b4e12854c62", "fields": {"polling_district": "LAWH", "location_name": "Stanley Room, St. Luke's Church", "objectid": 162, "uprn_2": "000000237055", "locality": "Redfield", "dual_stn": "Used by LAWH and LAWF", "geo_point_2d": [51.454451311161115, -2.563925194006028], "street": "Church Street", "postcode": "BS5 9FB", "dual": "Yes", "uprn": 237055, "geo_shape": {"type": "Point", "coordinates": [-2.563925194006028, 51.454451311161115]}, "access_desription": "Avonvale Road access", "pao": "St Lukes Church"}, "geometry": {"type": "Point", "coordinates": [-2.563925194006028, 51.454451311161115]}, "record_timestamp": "2018-01-09T02:01:06+00:00"}, {"datasetid": "polling-stations", "recordid": "68cece2c7b0c087d950b49034cdcf45acbd84a93", "fields": {"polling_district": "BISA", "location_name": "Bedminster Down Secondary School", "objectid": 168, "uprn_2": "000000272984", "locality": "Bedminster Down", "geo_point_2d": [51.42140282269256, -2.619922826538542], "street": "Donald Road", "postcode": "BS13 7DQ", "dual": "No", "uprn": 272984, "geo_shape": {"type": "Point", "coordinates": [-2.619922826538542, 51.42140282269256]}, "pao": "Bedminster Down Secondary School"}, "geometry": {"type": "Point", "coordinates": [-2.619922826538542, 51.42140282269256]}, "record_timestamp": "2018-01-09T02:01:06+00:00"}, {"datasetid": "polling-stations", "recordid": "e4600be46773266a7362fe1a7831fa689ff26d31", "fields": {"polling_district": "BRWF", "location_name": "Hungerford Community Centre", "objectid": 172, "uprn_2": "000000145463", "locality": "Brislington", "geo_point_2d": [51.42652117686647, -2.543430326494816], "street": "Hungerford Road", "postcode": "BS4 5EX", "dual": "No", "uprn": 145463, "geo_shape": {"type": "Point", "coordinates": [-2.543430326494816, 51.42652117686647]}, "pao": "Hungerford Community Centre"}, "geometry": {"type": "Point", "coordinates": [-2.543430326494816, 51.42652117686647]}, "record_timestamp": "2018-01-09T02:01:06+00:00"}, {"datasetid": "polling-stations", "recordid": "20f0387b76c74b46b6af78ebe0b765e07dcba0da", "fields": {"polling_district": "ESVC", "location_name": "May Park Primary School", "objectid": 176, "uprn_2": "000000062304", "locality": "Eastville", "geo_point_2d": [51.47155624425089, -2.557686142411739], "street": "Coombe Road", "postcode": "BS5 6LE", "dual": "No", "uprn": 62304, "geo_shape": {"type": "Point", "coordinates": [-2.557686142411739, 51.47155624425089]}, "access_desription": "East Park Drive", "pao": "May Park Primary School"}, "geometry": {"type": "Point", "coordinates": [-2.557686142411739, 51.47155624425089]}, "record_timestamp": "2018-01-09T02:01:06+00:00"}, {"datasetid": "polling-stations", "recordid": "a67201e82f49f84f3bcc9b3cbd5a704f737ab8aa", "fields": {"polling_district": "FRVF", "location_name": "Former Fishponds Library", "objectid": 643, "uprn_2": "000000258612", "locality": "Fishponds", "geo_point_2d": [51.479064669108396, -2.533208992470458], "street": "Fishponds Road", "postcode": "BS16 3UH", "dual": "No", "uprn": 258612, "geo_shape": {"type": "Point", "coordinates": [-2.533208992470458, 51.479064669108396]}, "pao": "Former Fishponds Library"}, "geometry": {"type": "Point", "coordinates": [-2.533208992470458, 51.479064669108396]}, "record_timestamp": "2018-01-09T02:01:06+00:00"}, {"datasetid": "polling-stations", "recordid": "0130f09d0ae1920e680434fc0427f0da02d84dfa", "fields": {"polling_district": "HEBE", "location_name": "Scout Hut", "objectid": 14, "uprn_2": "000000342967", "locality": "Brentry", "geo_point_2d": [51.51284496012253, -2.615090837084168], "street": "Tranmere Avenue", "postcode": "BS10 7JN", "dual": "No", "uprn": 342967, "geo_shape": {"type": "Point", "coordinates": [-2.615090837084168, 51.51284496012253]}, "pao": "Scout Hut Tranmere Avenue"}, "geometry": {"type": "Point", "coordinates": [-2.615090837084168, 51.51284496012253]}, "record_timestamp": "2018-01-09T02:01:06+00:00"}, {"datasetid": "polling-stations", "recordid": "bf64c1d1e2da647e003aa9b7a7bb550489903356", "fields": {"polling_district": "SGCF", "location_name": "Summerhill Methodist Church Hall", "objectid": 24, "uprn_2": "000000095329", "locality": "St George", "dual_stn": "Used by SGCF and SGCE", "geo_point_2d": [51.4591716168172, -2.533253385968493], "street": "Air Balloon Road", "postcode": "BS5 8LB", "dual": "Yes", "uprn": 95329, "geo_shape": {"type": "Point", "coordinates": [-2.533253385968493, 51.4591716168172]}, "pao": "Summerhill Methodist Church"}, "geometry": {"type": "Point", "coordinates": [-2.533253385968493, 51.4591716168172]}, "record_timestamp": "2018-01-09T02:01:06+00:00"}, {"datasetid": "polling-stations", "recordid": "d0ffd2e28099e20d06c26042fd71042933197e69", "fields": {"dual_stn": "Used by ESTG and ESTF", "location_name": "St Annes Board Mill Social Club", "objectid": 27, "uprn_2": "000000101930", "geo_point_2d": [51.455746723700635, -2.556270028324747], "polling_district": "ESTG", "street": "Avonvale Road", "postcode": "BS5 9RN", "dual": "Yes", "uprn": 101930, "geo_shape": {"type": "Point", "coordinates": [-2.556270028324747, 51.455746723700635]}, "pao": "St Annes Board Mill Social Club"}, "geometry": {"type": "Point", "coordinates": [-2.556270028324747, 51.455746723700635]}, "record_timestamp": "2018-01-09T02:01:06+00:00"}, {"datasetid": "polling-stations", "recordid": "bb336d2045f55c7c315ffcac06097ae82466784d", "fields": {"polling_district": "SGWA", "location_name": "St. Ambrose Beehive Centre", "objectid": 29, "uprn_2": "000000261461", "locality": "St George", "geo_point_2d": [51.46315445744366, -2.550846959246805], "street": "Stretford Road", "postcode": "BS5 7AW", "dual": "No", "uprn": 261461, "geo_shape": {"type": "Point", "coordinates": [-2.550846959246805, 51.46315445744366]}, "pao": "19A"}, "geometry": {"type": "Point", "coordinates": [-2.550846959246805, 51.46315445744366]}, "record_timestamp": "2018-01-09T02:01:06+00:00"}, {"datasetid": "polling-stations", "recordid": "c3447c6fa7df51ab87c1d81474c6019bb89285c9", "fields": {"polling_district": "STWC", "location_name": "Counterslip Baptist Church Hall", "objectid": 31, "uprn_2": "000000154968", "locality": "Totterdown", "geo_point_2d": [51.41705612160811, -2.55994155905998], "street": "Wells Road", "postcode": "BS14 9HT", "dual": "No", "uprn": 154968, "geo_shape": {"type": "Point", "coordinates": [-2.55994155905998, 51.41705612160811]}, "pao": "Counterslip Baptist Church"}, "geometry": {"type": "Point", "coordinates": [-2.55994155905998, 51.41705612160811]}, "record_timestamp": "2018-01-09T02:01:06+00:00"}, {"datasetid": "polling-stations", "recordid": "e3efaff483acdb7c5579a4df129abe3894223963", "fields": {"polling_district": "HEBF", "location_name": "Brentry Primary School", "objectid": 38, "uprn_2": "000000001084", "locality": "Brentry", "dual_stn": "Used by HEBF and HEBG", "geo_point_2d": [51.51293454267976, -2.61022745702706], "street": "Brentry Lane", "postcode": "BS10 6RG", "dual": "Yes", "uprn": 1084, "geo_shape": {"type": "Point", "coordinates": [-2.61022745702706, 51.51293454267976]}, "access_desription": "Okebourne Road", "pao": "Brentry Primary School"}, "geometry": {"type": "Point", "coordinates": [-2.61022745702706, 51.51293454267976]}, "record_timestamp": "2018-01-09T02:01:06+00:00"}, {"datasetid": "polling-stations", "recordid": "5cc2a1c8674696ed25d4d114ea9af7fca2729a30", "fields": {"polling_district": "CLDC", "location_name": "Redland Library", "objectid": 41, "uprn_2": "000000076586", "locality": "Clifton", "geo_point_2d": [51.46531184482874, -2.61084415957028], "street": "Whiteladies Road", "postcode": "BS8 2PY", "dual": "No", "uprn": 76586, "geo_shape": {"type": "Point", "coordinates": [-2.61084415957028, 51.46531184482874]}, "pao": "Redland Library"}, "geometry": {"type": "Point", "coordinates": [-2.61084415957028, 51.46531184482874]}, "record_timestamp": "2018-01-09T02:01:06+00:00"}, {"datasetid": "polling-stations", "recordid": "42db05278f087009ebf63dd7ad641e22eb364df5", "fields": {"polling_district": "REDA", "location_name": "Cairns Road Baptist Church Hall", "objectid": 43, "uprn_2": "000000045757", "locality": "Redland", "geo_point_2d": [51.48053353045645, -2.6041210780467283], "street": "Cairns Road", "postcode": "BS6 7TH", "dual": "No", "uprn": 45757, "geo_shape": {"type": "Point", "coordinates": [-2.6041210780467283, 51.48053353045645]}, "access_desription": "Cairns Road", "pao": "Cairns Road Baptist Church"}, "geometry": {"type": "Point", "coordinates": [-2.6041210780467283, 51.48053353045645]}, "record_timestamp": "2018-01-09T02:01:06+00:00"}, {"datasetid": "polling-stations", "recordid": "3a72eda42a34570fd1375453b9b06d88e452b93e", "fields": {"polling_district": "LAWG", "location_name": "Hannah More Primary School", "objectid": 66, "uprn_2": "000000105366", "locality": "St Philips", "geo_point_2d": [51.45377408922942, -2.579258461602138], "street": "New Kingsley Road", "postcode": "BS2 0LT", "dual": "No", "uprn": 105366, "geo_shape": {"type": "Point", "coordinates": [-2.579258461602138, 51.45377408922942]}, "pao": "Hannah More C E School"}, "geometry": {"type": "Point", "coordinates": [-2.579258461602138, 51.45377408922942]}, "record_timestamp": "2018-01-09T02:01:06+00:00"}, {"datasetid": "polling-stations", "recordid": "e972e9131fbd51aef9e2283f866fdec840d1522b", "fields": {"polling_district": "LOCE", "location_name": "Stoke Park School", "objectid": 73, "uprn_2": "000000206843", "locality": "Lockleaze", "geo_point_2d": [51.487536652606444, -2.564707896215946], "street": "Brangwyn Grove", "postcode": "BS7 9BY", "dual": "No", "uprn": 206843, "geo_shape": {"type": "Point", "coordinates": [-2.564707896215946, 51.487536652606444]}, "access_desription": "Brangwyn Grove", "pao": "Lockleaze Primary School"}, "geometry": {"type": "Point", "coordinates": [-2.564707896215946, 51.487536652606444]}, "record_timestamp": "2018-01-09T02:01:06+00:00"}, {"datasetid": "polling-stations", "recordid": "d3c5f089533f50acc4127b104954a6f0b82bbed5", "fields": {"polling_district": "REDC", "location_name": "St Michaels Church Centre", "objectid": 74, "uprn_2": "000000308693", "locality": "Bishopston", "dual_stn": "Used by REDC amd REDG", "geo_point_2d": [51.47762829859106, -2.590211406876104], "street": "160a Gloucester Road", "postcode": "BS7 8NT", "dual": "Yes", "uprn": 308693, "geo_shape": {"type": "Point", "coordinates": [-2.590211406876104, 51.47762829859106]}, "pao": "St Michaels Church Centre"}, "geometry": {"type": "Point", "coordinates": [-2.590211406876104, 51.47762829859106]}, "record_timestamp": "2018-01-09T02:01:06+00:00"}, {"datasetid": "polling-stations", "recordid": "47944cd76e06d7d94fb715d9bbb69abeb9817a29", "fields": {"polling_district": "SGTC", "location_name": "Portacabin, Dundridge Playing Field Car Park", "objectid": 78, "locality": "St George East", "geo_point_2d": [51.45018393331531, -2.528414115553238], "street": "Dundridge Lane", "postcode": "BS5 8SW", "dual": "No", "uprn": 110560, "geo_shape": {"type": "Point", "coordinates": [-2.528414115553238, 51.45018393331531]}, "pao": "Dundridge Lane"}, "geometry": {"type": "Point", "coordinates": [-2.528414115553238, 51.45018393331531]}, "record_timestamp": "2018-01-09T02:01:06+00:00"}, {"datasetid": "polling-stations", "recordid": "0fbc2596c559406d3ca019b88fb33bffab277e2c", "fields": {"polling_district": "BIAF", "location_name": "Kelvin Players Theatre Company", "objectid": 89, "uprn_2": "000000174091", "locality": "Bishopston", "geo_point_2d": [51.478131267771474, -2.589455614129711], "street": "Gloucester Road", "postcode": "BS7 8NY", "dual": "No", "uprn": 174091, "geo_shape": {"type": "Point", "coordinates": [-2.589455614129711, 51.478131267771474]}, "pao": "Kelvin Players Theatre Company", "saon": "253b"}, "geometry": {"type": "Point", "coordinates": [-2.589455614129711, 51.478131267771474]}, "record_timestamp": "2018-01-09T02:01:06+00:00"}, {"datasetid": "polling-stations", "recordid": "fb67950d36f33e5a509e000a080d05bef3e8f63a", "fields": {"dual_stn": "SGCG and SGCB", "location_name": "St Michaels Church Hall", "objectid": 92, "uprn_2": "000000275145", "geo_point_2d": [51.4619028958339, -2.521148606981144], "polling_district": "SGCG", "street": "Two Mile Hill Road", "postcode": "BS15 1BQ", "dual": "Yes", "uprn": 275145, "geo_shape": {"type": "Point", "coordinates": [-2.521148606981144, 51.4619028958339]}, "access_desription": "Pile Marsh Entrance", "pao": "St Michaels Church Hall"}, "geometry": {"type": "Point", "coordinates": [-2.521148606981144, 51.4619028958339]}, "record_timestamp": "2018-01-09T02:01:06+00:00"}, {"datasetid": "polling-stations", "recordid": "4b6682450cc63cc01355d2008a399ef0dd9fd9f0", "fields": {"polling_district": "SGTB", "location_name": "St Aidans Church Hall", "uprn_2": "000000300280", "objectid": 93, "geo_point_2d": [51.45479844701037, -2.529320380630665], "street": "Fir Tree Lane", "postcode": "BS5 8TZ", "dual": "No", "uprn": 300280, "geo_shape": {"type": "Point", "coordinates": [-2.529320380630665, 51.45479844701037]}, "pao": "St Aidans Church Hall"}, "geometry": {"type": "Point", "coordinates": [-2.529320380630665, 51.45479844701037]}, "record_timestamp": "2018-01-09T02:01:06+00:00"}, {"datasetid": "polling-stations", "recordid": "bf849dcd7f36951cd7df2fc5bb3d17fa57c37997", "fields": {"polling_district": "SMDE", "location_name": "Southmead Community Centre", "objectid": 133, "uprn_2": "000000007859", "geo_point_2d": [51.50317889931347, -2.600737694700471], "street": "Greystoke Avenue", "postcode": "BS10 6BQ", "dual": "No", "uprn": 7859, "geo_shape": {"type": "Point", "coordinates": [-2.600737694700471, 51.50317889931347]}, "pao": "Southmead Community Centre", "saon": "248"}, "geometry": {"type": "Point", "coordinates": [-2.600737694700471, 51.50317889931347]}, "record_timestamp": "2018-01-09T02:01:06+00:00"}, {"datasetid": "polling-stations", "recordid": "11b5bbb5b4c8b6a2e041579a55a7fa39efbcc900", "fields": {"polling_district": "LAWA", "location_name": "The Hellenic Community Centre", "uprn_2": "000000304613", "objectid": 138, "geo_point_2d": [51.465414744666724, -2.573329891252945], "street": "Lower Ashley Road", "postcode": "BS5 0YL", "dual": "No", "uprn": 304613, "geo_shape": {"type": "Point", "coordinates": [-2.573329891252945, 51.465414744666724]}, "pao": "The Hellenic"}, "geometry": {"type": "Point", "coordinates": [-2.573329891252945, 51.465414744666724]}, "record_timestamp": "2018-01-09T02:01:06+00:00"}, {"datasetid": "polling-stations", "recordid": "64252c2fd82b0a61951a42f2502cdd9d4801dab6", "fields": {"polling_district": "WEHE", "location_name": "Newman Hall", "uprn_2": "000000032574", "objectid": 142, "geo_point_2d": [51.48755120889864, -2.613975336281387], "street": "Grange Court Road", "postcode": "BS9 4DR", "dual": "No", "uprn": 32574, "geo_shape": {"type": "Point", "coordinates": [-2.613975336281387, 51.48755120889864]}, "pao": "Newman Hall"}, "geometry": {"type": "Point", "coordinates": [-2.613975336281387, 51.48755120889864]}, "record_timestamp": "2018-01-09T02:01:06+00:00"}, {"datasetid": "polling-stations", "recordid": "1c208adc7169de28318b7b37a87391aa73320abc", "fields": {"polling_district": "ESTD", "location_name": "Easton Community Centre", "objectid": 151, "uprn_2": "000000088155", "locality": "Easton", "geo_point_2d": [51.461776286697365, -2.562720025190125], "street": "Kilburn Road", "postcode": "BS5 6AW", "dual": "No", "uprn": 88155, "geo_shape": {"type": "Point", "coordinates": [-2.562720025190125, 51.461776286697365]}, "pao": "Easton Community Centre"}, "geometry": {"type": "Point", "coordinates": [-2.562720025190125, 51.461776286697365]}, "record_timestamp": "2018-01-09T02:01:06+00:00"}, {"datasetid": "polling-stations", "recordid": "681fb24727e6b9ead726d2aa02e621a99128f8e8", "fields": {"polling_district": "BIAG", "location_name": "Ashley Down Primary School, Brunel Field Site", "objectid": 155, "uprn_2": "000000342038", "locality": "Bishopston", "dual_stn": "Used by BIAG and BIAE", "geo_point_2d": [51.47822118550627, -2.583110494993114], "street": "Arthur Milton Street", "postcode": "BS7 9JT", "dual": "Yes", "uprn": 342038, "geo_shape": {"type": "Point", "coordinates": [-2.583110494993114, 51.47822118550627]}, "access_desription": "Gate 2, Brunel Field Site", "pao": "Brunel Field Primary School"}, "geometry": {"type": "Point", "coordinates": [-2.583110494993114, 51.47822118550627]}, "record_timestamp": "2018-01-09T02:01:06+00:00"}, {"datasetid": "polling-stations", "recordid": "e7c85487f2611cddb2674b2ca73664477ae5931f", "fields": {"polling_district": "ASHK", "location_name": "St Pauls Community Sports Academy", "objectid": 158, "uprn_2": "000000295524", "locality": "St Pauls", "geo_point_2d": [51.462363995255714, -2.5804900219286173], "street": "Newfoundland Road", "postcode": "BS2 9NH", "dual": "No", "uprn": 295524, "geo_shape": {"type": "Point", "coordinates": [-2.5804900219286173, 51.462363995255714]}, "pao": "St Pauls Community Sports Academy"}, "geometry": {"type": "Point", "coordinates": [-2.5804900219286173, 51.462363995255714]}, "record_timestamp": "2018-01-09T02:01:06+00:00"}, {"datasetid": "polling-stations", "recordid": "0e5d8284d93d3f9c2166b83e99703fbecfe76d07", "fields": {"polling_district": "SGCA", "location_name": "Meadow Vale Community Centre", "objectid": 166, "uprn_2": "000000077329", "locality": "St George", "geo_point_2d": [51.46515693408643, -2.531955625482984], "street": "Meadow Vale", "postcode": "BS5 7RF", "dual": "No", "uprn": 77329, "geo_shape": {"type": "Point", "coordinates": [-2.531955625482984, 51.46515693408643]}, "pao": "Meadow Vale Community Centre"}, "geometry": {"type": "Point", "coordinates": [-2.531955625482984, 51.46515693408643]}, "record_timestamp": "2018-01-09T02:01:06+00:00"}, {"datasetid": "polling-stations", "recordid": "76e1ad8bbbe0a090d7111768755ca326a2598f91", "fields": {"polling_district": "STBG", "location_name": "St Mary Magdalene Church", "objectid": 171, "uprn_2": "000000298663", "locality": "Stoke Bishop", "geo_point_2d": [51.47678869711557, -2.6355478633636062], "street": "Mariners Drive", "postcode": "BS9 1QJ", "dual": "No", "uprn": 298663, "geo_shape": {"type": "Point", "coordinates": [-2.6355478633636062, 51.47678869711557]}, "pao": "St Mary Magdalene"}, "geometry": {"type": "Point", "coordinates": [-2.6355478633636062, 51.47678869711557]}, "record_timestamp": "2018-01-09T02:01:06+00:00"}, {"datasetid": "polling-stations", "recordid": "6cce894dd29ba3ad0ac95560bcfeb2bb0ee09a6f", "fields": {"polling_district": "LAWC", "location_name": "Easton Business Centre", "objectid": 173, "uprn_2": "000000085556", "locality": "Easton", "geo_point_2d": [51.46208598607, -2.5674883723788158], "street": "Felix Road", "postcode": "BS5 0HE", "dual": "No", "uprn": 85556, "geo_shape": {"type": "Point", "coordinates": [-2.5674883723788158, 51.46208598607]}, "pao": "Easton Business Centre"}, "geometry": {"type": "Point", "coordinates": [-2.5674883723788158, 51.46208598607]}, "record_timestamp": "2018-01-09T02:01:06+00:00"}, {"datasetid": "polling-stations", "recordid": "5f888622d30985ee2a0fdde06854d69a438f854e", "fields": {"polling_district": "BIAB", "location_name": "Ashley Down Primary School, Downend Road Site", "objectid": 1, "uprn_2": "000000347784", "locality": "Horfield", "geo_point_2d": [51.483607312795414, -2.584072007815962], "street": "Downend Road", "postcode": "BS7 9PE", "dual": "No", "uprn": 347785, "geo_shape": {"type": "Point", "coordinates": [-2.584072007815962, 51.483607312795414]}, "pao": "Ashley Down Junior School"}, "geometry": {"type": "Point", "coordinates": [-2.584072007815962, 51.483607312795414]}, "record_timestamp": "2018-01-09T02:01:06+00:00"}, {"datasetid": "polling-stations", "recordid": "5a6b80693cf22d953d47c6de784b0f3a91c5e7dd", "fields": {"polling_district": "ESVB", "location_name": "Bristol Metropolitan Academy", "objectid": 11, "uprn_2": "000000045228 Need to cehck current address", "locality": "Stapleton", "geo_point_2d": [51.481424591096165, -2.539417181463352], "street": "Snowdon Road", "postcode": "BS16 2HD", "dual": "No", "uprn": 45228, "geo_shape": {"type": "Point", "coordinates": [-2.539417181463352, 51.481424591096165]}, "pao": "Bristol Metropolitan Academy"}, "geometry": {"type": "Point", "coordinates": [-2.539417181463352, 51.481424591096165]}, "record_timestamp": "2018-01-09T02:01:06+00:00"}, {"datasetid": "polling-stations", "recordid": "2331a6c838c49ddd40e5764aebe129dc282b1572", "fields": {"polling_district": "SVLF", "location_name": "The Greenhouse", "objectid": 30, "uprn_2": "000000273463", "locality": "Bedminster", "geo_point_2d": [51.440203732248975, -2.595790592565166], "street": "Hereford Street", "postcode": "BS3 4NA", "dual": "No", "uprn": 123812, "geo_shape": {"type": "Point", "coordinates": [-2.595790592565166, 51.440203732248975]}, "pao": "The Green House"}, "geometry": {"type": "Point", "coordinates": [-2.595790592565166, 51.440203732248975]}, "record_timestamp": "2018-01-09T02:01:06+00:00"}, {"datasetid": "polling-stations", "recordid": "ac0d2c607bb5ee0233f36acd4907b4ec59e1d06b", "fields": {"polling_district": "HWPD", "location_name": "St Bernadettes RC Parish Hall", "objectid": 33, "uprn_2": "000000155852", "locality": "Totterdown", "dual_stn": "Used by HWPD and HWPF", "geo_point_2d": [51.41444696570582, -2.56026915283656], "street": "Wells Road", "postcode": "BS14 9HU", "dual": "Yes", "uprn": 155852, "geo_shape": {"type": "Point", "coordinates": [-2.56026915283656, 51.41444696570582]}, "pao": "St Bernadette Rc Church"}, "geometry": {"type": "Point", "coordinates": [-2.56026915283656, 51.41444696570582]}, "record_timestamp": "2018-01-09T02:01:06+00:00"}, {"datasetid": "polling-stations", "recordid": "53ca940ba097b1006eac451090e07cbaebb09201", "fields": {"polling_district": "SMDC", "location_name": "Southmead Library", "objectid": 40, "uprn_2": "000000201220", "locality": "Southmead", "geo_point_2d": [51.503058893213144, -2.603842718380803], "street": "Greystoke Avenue", "postcode": "BS10 6AS", "dual": "No", "uprn": 201220, "geo_shape": {"type": "Point", "coordinates": [-2.603842718380803, 51.503058893213144]}, "pao": "Southmead Library"}, "geometry": {"type": "Point", "coordinates": [-2.603842718380803, 51.503058893213144]}, "record_timestamp": "2018-01-09T02:01:06+00:00"}, {"datasetid": "polling-stations", "recordid": "07c8e93a9c54a52f5d893bccc61cf3a49e81c90f", "fields": {"polling_district": "HAWB", "location_name": "Hartcliffe Club for Young People", "objectid": 42, "uprn_2": "000000253143", "locality": "Bishopsworth", "geo_point_2d": [51.411035560485004, -2.613053476669231], "street": "Gatehouse Avenue", "postcode": "BS13 9AE", "dual": "No", "uprn": 253143, "geo_shape": {"type": "Point", "coordinates": [-2.613053476669231, 51.411035560485004]}, "pao": "Hartcliffe Club For Young People"}, "geometry": {"type": "Point", "coordinates": [-2.613053476669231, 51.411035560485004]}, "record_timestamp": "2018-01-09T02:01:06+00:00"}, {"datasetid": "polling-stations", "recordid": "e313fc2d23591c0eb661c98ba6ce38b12712c3c2", "fields": {"polling_district": "CLIF", "location_name": "Hope Chapel", "objectid": 50, "uprn_2": "000000108740", "locality": "Clifton", "geo_point_2d": [51.45121922207206, -2.621621920147176], "street": "Hope Chapel Hill", "postcode": "BS8 4ND", "dual": "No", "uprn": 108740, "geo_shape": {"type": "Point", "coordinates": [-2.621621920147176, 51.45121922207206]}, "access_desription": "Hope Chapel Hill", "pao": "Hope Chapel"}, "geometry": {"type": "Point", "coordinates": [-2.621621920147176, 51.45121922207206]}, "record_timestamp": "2018-01-09T02:01:06+00:00"}, {"datasetid": "polling-stations", "recordid": "78f02c683fb875b3c789bd6743c195524737fd2e", "fields": {"polling_district": "HOHC", "location_name": "Central Library", "objectid": 54, "uprn_2": "000000199356", "locality": "City Centre", "geo_point_2d": [51.45147238865085, -2.602413295808379], "street": "Deanery Road", "postcode": "BS1 5TL", "dual": "No", "uprn": 199356, "geo_shape": {"type": "Point", "coordinates": [-2.602413295808379, 51.45147238865085]}, "pao": "Central Library"}, "geometry": {"type": "Point", "coordinates": [-2.602413295808379, 51.45147238865085]}, "record_timestamp": "2018-01-09T02:01:06+00:00"}, {"datasetid": "polling-stations", "recordid": "b76749738fda8a6c912c866daadf09ff975cd631", "fields": {"polling_district": "CENC", "location_name": "St James Priory", "uprn_2": "000000216328", "objectid": 55, "geo_point_2d": [51.45888561461641, -2.592431307519963], "street": "Whitson Street", "postcode": "BS1 3NZ", "dual": "No", "uprn": 216328, "geo_shape": {"type": "Point", "coordinates": [-2.592431307519963, 51.45888561461641]}, "pao": "St James Priory"}, "geometry": {"type": "Point", "coordinates": [-2.592431307519963, 51.45888561461641]}, "record_timestamp": "2018-01-09T02:01:06+00:00"}, {"datasetid": "polling-stations", "recordid": "3c984053027d1c4641dfa88cac99cdc0f4d3d8fb", "fields": {"polling_district": "LAWB", "location_name": "Newton Hall", "objectid": 62, "uprn_2": "000000338209", "locality": "Easton", "dual_stn": "Used by LAWB and LAWD", "geo_point_2d": [51.45991579872014, -2.575521912394364], "street": "Newton Street", "postcode": "BS5 0QZ", "dual": "Yes", "uprn": 338209, "geo_shape": {"type": "Point", "coordinates": [-2.575521912394364, 51.45991579872014]}, "pao": "Stapleton Road Congregational Church"}, "geometry": {"type": "Point", "coordinates": [-2.575521912394364, 51.45991579872014]}, "record_timestamp": "2018-01-09T02:01:06+00:00"}, {"datasetid": "polling-stations", "recordid": "f6e56f6ca47c5ac910da453a8cdd14fe81d60f38", "fields": {"polling_district": "SMDD", "location_name": "Greenway Centre", "objectid": 63, "uprn_2": "000000011412", "locality": "Southmead", "geo_point_2d": [51.49935222366106, -2.60946972777124], "street": "Doncaster Road", "postcode": "BS10 5PY", "dual": "No", "uprn": 11412, "geo_shape": {"type": "Point", "coordinates": [-2.60946972777124, 51.49935222366106]}, "pao": "Greenway Centre"}, "geometry": {"type": "Point", "coordinates": [-2.60946972777124, 51.49935222366106]}, "record_timestamp": "2018-01-09T02:01:06+00:00"}, {"datasetid": "polling-stations", "recordid": "747a24e764f4425c21d6c98e29be217bd8c5abea", "fields": {"polling_district": "HORB", "location_name": "Eden Grove Methodist Church Hall", "objectid": 71, "uprn_2": "000000278821", "locality": "Horfield", "geo_point_2d": [51.5005484941454, -2.577416820939907], "street": "Eden Grove", "postcode": "BS7 0PQ", "dual": "No", "uprn": 278821, "geo_shape": {"type": "Point", "coordinates": [-2.577416820939907, 51.5005484941454]}, "pao": "Eden Grove Methodist Church Hall"}, "geometry": {"type": "Point", "coordinates": [-2.577416820939907, 51.5005484941454]}, "record_timestamp": "2018-01-09T02:01:06+00:00"}, {"datasetid": "polling-stations", "recordid": "5f433e41f2386e7d7f37d0c7e254f185b3c5591c", "fields": {"polling_district": "FRVE", "location_name": "Little Hayes Nursery School", "objectid": 72, "uprn_2": "000000273240", "locality": "Oldbury Court", "geo_point_2d": [51.491349817182936, -2.516535154720287], "street": "Frenchay Road", "postcode": "BS16 2QS", "dual": "No", "uprn": 273240, "geo_shape": {"type": "Point", "coordinates": [-2.516535154720287, 51.491349817182936]}, "pao": "Frome Vale Primary Academy"}, "geometry": {"type": "Point", "coordinates": [-2.516535154720287, 51.491349817182936]}, "record_timestamp": "2018-01-09T02:01:06+00:00"}, {"datasetid": "polling-stations", "recordid": "50b6bc8f8774b13162fa4e5e8acfb0e2859f3252", "fields": {"polling_district": "SGWC", "location_name": "St Patricks Rc School", "objectid": 90, "uprn_2": "000000098788", "locality": "St George", "geo_point_2d": [51.457359437660216, -2.552571470998851], "street": "Blackswarth Road", "postcode": "BS5 8AS", "dual": "No", "uprn": 300066, "geo_shape": {"type": "Point", "coordinates": [-2.552571470998851, 51.457359437660216]}, "pao": "St Patricks Rc School"}, "geometry": {"type": "Point", "coordinates": [-2.552571470998851, 51.457359437660216]}, "record_timestamp": "2018-01-09T02:01:06+00:00"}, {"datasetid": "polling-stations", "recordid": "3f6dabc85bd44a9aae539088d02475a0bc7c921f", "fields": {"polling_district": "CENE", "location_name": "YHA Bristol Youth Hostel", "objectid": 99, "uprn_2": "000000111130", "geo_point_2d": [51.44975246073847, -2.597175323943044], "street": "Narrow Quay", "postcode": "BS1 4QA", "dual": "No", "uprn": 111130, "geo_shape": {"type": "Point", "coordinates": [-2.597175323943044, 51.44975246073847]}, "pao": "Bristol Youth Hostel", "saon": "14"}, "geometry": {"type": "Point", "coordinates": [-2.597175323943044, 51.44975246073847]}, "record_timestamp": "2018-01-09T02:01:06+00:00"}, {"datasetid": "polling-stations", "recordid": "421a82fd3b4dfbc6a5dad99ac22e3c5c0ac57c41", "fields": {"polling_district": "HAWF", "location_name": "Fair Furlong Primary School", "uprn_2": "000000164792", "objectid": 102, "geo_point_2d": [51.407445578285625, -2.6115305439163032], "street": "Vowell Close", "postcode": "BS13 9HS", "dual": "No", "uprn": 164792, "geo_shape": {"type": "Point", "coordinates": [-2.6115305439163032, 51.407445578285625]}, "pao": "Fair Furlong Primary School"}, "geometry": {"type": "Point", "coordinates": [-2.6115305439163032, 51.407445578285625]}, "record_timestamp": "2018-01-09T02:01:06+00:00"}, {"datasetid": "polling-stations", "recordid": "5e48312db4aaaa63c7f7b50c5f51e43ba033ed7f", "fields": {"dual_stn": "Used by HILF and HILG", "location_name": "Minerva Primary Academy", "objectid": 104, "uprn_2": "000000059974", "geo_point_2d": [51.47278385189376, -2.515760572970894], "polling_district": "HILF", "street": "The Greenway", "postcode": "BS16 4HA", "dual": "Yes", "uprn": 59974, "geo_shape": {"type": "Point", "coordinates": [-2.515760572970894, 51.47278385189376]}, "pao": "Minerva Primary Academy"}, "geometry": {"type": "Point", "coordinates": [-2.515760572970894, 51.47278385189376]}, "record_timestamp": "2018-01-09T02:01:06+00:00"}, {"datasetid": "polling-stations", "recordid": "578046f3eb44b95df0140aacfcde2c9ed4714c73", "fields": {"polling_district": "ESVE", "location_name": "All Saints Church", "objectid": 116, "uprn_2": "000000302580", "locality": "Fishponds", "dual_stn": "Used for ESVE and ESVD", "geo_point_2d": [51.478828416282276, -2.538896953483791], "street": "Grove Road", "postcode": "BS16 2BW", "dual": "Yes", "uprn": 302580, "geo_shape": {"type": "Point", "coordinates": [-2.538896953483791, 51.478828416282276]}, "pao": "All Saints Church"}, "geometry": {"type": "Point", "coordinates": [-2.538896953483791, 51.478828416282276]}, "record_timestamp": "2018-01-09T02:01:06+00:00"}, {"datasetid": "polling-stations", "recordid": "5643c08165b6e13aa497a4986d980ff8eedebd64", "fields": {"polling_district": "WEHD", "location_name": "The Scout Hall, Westbury Baptist Car Park", "objectid": 131, "uprn_2": "000000278729", "locality": "Westbury", "geo_point_2d": [51.48649072615208, -2.623815468955406], "street": "Brainsfield", "postcode": "BS9 3TD", "dual": "No", "uprn": 278729, "geo_shape": {"type": "Point", "coordinates": [-2.623815468955406, 51.48649072615208]}, "access_desription": "Brainsfield off Reedley Road", "pao": "The Scouts Hall"}, "geometry": {"type": "Point", "coordinates": [-2.623815468955406, 51.48649072615208]}, "record_timestamp": "2018-01-09T02:01:06+00:00"}, {"datasetid": "polling-stations", "recordid": "14db32b5c0fc56065f1424cecf7f68dbd5ab99cc", "fields": {"polling_district": "FWDC", "location_name": "Knowle West Media Centre", "uprn_2": "000000320072", "objectid": 140, "geo_point_2d": [51.42540049159684, -2.593337225560294], "street": "Leinster Avenue", "postcode": "BS4 1NL", "dual": "No", "uprn": 320072, "geo_shape": {"type": "Point", "coordinates": [-2.593337225560294, 51.42540049159684]}, "pao": "Knowle West Media Centre"}, "geometry": {"type": "Point", "coordinates": [-2.593337225560294, 51.42540049159684]}, "record_timestamp": "2018-01-09T02:01:06+00:00"}, {"datasetid": "polling-stations", "recordid": "3db5a39b7c3683df4563f5f3d740a6ff8ad23cd2", "fields": {"polling_district": "ASHB", "location_name": "Sefton Park Primary School", "uprn_2": "000000199338", "objectid": 141, "geo_point_2d": [51.475009475923535, -2.5820444227578028], "street": "Ashley Down Road", "postcode": "BS7 9BJ", "dual": "No", "uprn": 199338, "geo_shape": {"type": "Point", "coordinates": [-2.5820444227578028, 51.475009475923535]}, "pao": "Sefton Park Primary School"}, "geometry": {"type": "Point", "coordinates": [-2.5820444227578028, 51.475009475923535]}, "record_timestamp": "2018-01-09T02:01:06+00:00"}, {"datasetid": "polling-stations", "recordid": "252ec2fe6ff45950a68cca64318d98d2abf759c7", "fields": {"polling_district": "BEDB", "location_name": "Ashton Vale Community Centre", "objectid": 143, "uprn_2": "000000140041", "locality": "Ashton", "geo_point_2d": [51.43184849887521, -2.625501740536236], "street": "Risdale Road", "postcode": "BS3 2QY", "dual": "No", "uprn": 140041, "geo_shape": {"type": "Point", "coordinates": [-2.625501740536236, 51.43184849887521]}, "pao": "Ashton Vale Community Centre"}, "geometry": {"type": "Point", "coordinates": [-2.625501740536236, 51.43184849887521]}, "record_timestamp": "2018-01-09T02:01:06+00:00"}, {"datasetid": "polling-stations", "recordid": "d75becee9f049923990aad1afe529fb8ff3389fd", "fields": {"polling_district": "STWA1", "location_name": "South Bristol Sports Centre", "objectid": 148, "uprn_2": "000000303531", "locality": "Hengrove", "dual_stn": "STWA1 and STWA2", "geo_point_2d": [51.426172087700806, -2.559688896076842], "street": "West Town Lane", "postcode": "BS14 9EA", "dual": "Yes", "uprn": 303531, "geo_shape": {"type": "Point", "coordinates": [-2.559688896076842, 51.426172087700806]}, "access_desription": "West Town Lane", "pao": "South Bristol Sports Centre"}, "geometry": {"type": "Point", "coordinates": [-2.559688896076842, 51.426172087700806]}, "record_timestamp": "2018-01-09T02:01:06+00:00"}, {"datasetid": "polling-stations", "recordid": "c2c900ec8aabde2f84435139672eb5d1d0fd2245", "fields": {"polling_district": "WEHC", "location_name": "Westbury-on-Trym Methodist Hall", "objectid": 153, "uprn_2": "000000021338", "locality": "Westbury", "geo_point_2d": [51.49275743214611, -2.617102318318158], "street": "Westbury Hill", "postcode": "BS9 3AA", "dual": "No", "uprn": 21338, "geo_shape": {"type": "Point", "coordinates": [-2.617102318318158, 51.49275743214611]}, "pao": "Westbury On Trym Methodist Church"}, "geometry": {"type": "Point", "coordinates": [-2.617102318318158, 51.49275743214611]}, "record_timestamp": "2018-01-09T02:01:06+00:00"}, {"datasetid": "polling-stations", "recordid": "223d05e553791373daa83dfb3c4f7001586dfe36", "fields": {"polling_district": "HEBC", "location_name": "Henbury Library", "objectid": 161, "uprn_2": "000000003424", "locality": "Henbury", "dual_stn": "Used bu HEBC and HEBD", "geo_point_2d": [51.50973014597418, -2.619449877800787], "street": "Crow Lane", "postcode": "BS10 7DR", "dual": "Yes", "uprn": 3424, "geo_shape": {"type": "Point", "coordinates": [-2.619449877800787, 51.50973014597418]}, "pao": "Henbury Library"}, "geometry": {"type": "Point", "coordinates": [-2.619449877800787, 51.50973014597418]}, "record_timestamp": "2018-01-09T02:01:06+00:00"}, {"datasetid": "polling-stations", "recordid": "dbe8899767672260e6d2ffcc05037d238a7c52b8", "fields": {"polling_district": "SVLA", "location_name": "St Francis Centre", "objectid": 2, "uprn_2": "000000278652", "locality": "Ashton", "geo_point_2d": [51.442317516233295, -2.6147961151115213], "street": "North Street", "postcode": "BS3 1JP", "dual": "No", "uprn": 278652, "geo_shape": {"type": "Point", "coordinates": [-2.6147961151115213, 51.442317516233295]}, "access_desription": "Access St. Francis Road", "pao": "St Francis Church"}, "geometry": {"type": "Point", "coordinates": [-2.6147961151115213, 51.442317516233295]}, "record_timestamp": "2018-01-09T02:01:06+00:00"}, {"datasetid": "polling-stations", "recordid": "45306c16a2a78d2caf212b70f989cf87b79f8c3d", "fields": {"polling_district": "STWD", "location_name": "Southern Links Children's Centre", "objectid": 4, "uprn_2": "000000353896", "locality": "Stockwood", "geo_point_2d": [51.412905456463534, -2.551622952592473], "street": "Whittock Road", "postcode": "BS14 8DQ", "dual": "No", "uprn": 353896, "geo_shape": {"type": "Point", "coordinates": [-2.551622952592473, 51.412905456463534]}, "pao": "Burnbush Childrens Centre"}, "geometry": {"type": "Point", "coordinates": [-2.551622952592473, 51.412905456463534]}, "record_timestamp": "2018-01-09T02:01:06+00:00"}, {"datasetid": "polling-stations", "recordid": "e88d87c049af3e9a319597375075f8b0c6ca5e55", "fields": {"polling_district": "FWDF", "location_name": "Greenfield E-Act Academy", "objectid": 8, "uprn_2": "000000239367", "locality": "Knowle", "geo_point_2d": [51.42135077395145, -2.598809940633687], "street": "Novers Lane", "postcode": "BS4 1QW", "dual": "No", "uprn": 239367, "geo_shape": {"type": "Point", "coordinates": [-2.598809940633687, 51.42135077395145]}, "access_desription": "Novers Lane Access", "pao": "Greenfield Primary School"}, "geometry": {"type": "Point", "coordinates": [-2.598809940633687, 51.42135077395145]}, "record_timestamp": "2018-01-09T02:01:06+00:00"}, {"datasetid": "polling-stations", "recordid": "6750775193ea72f11c5dd885c886165215351dc4", "fields": {"polling_district": "HILE", "location_name": "Bristol Lodge Causeway SDA Church", "objectid": 15, "uprn_2": "000000252485", "locality": "Speedwell", "geo_point_2d": [51.47055420442268, -2.5214366166622693], "street": "Worcester Close", "postcode": "BS16 3PW", "dual": "No", "uprn": 252485, "geo_shape": {"type": "Point", "coordinates": [-2.5214366166622693, 51.47055420442268]}, "pao": "Seventh Day Adventist Church"}, "geometry": {"type": "Point", "coordinates": [-2.5214366166622693, 51.47055420442268]}, "record_timestamp": "2018-01-09T02:01:06+00:00"}, {"datasetid": "polling-stations", "recordid": "2e748133d29a7d1d53c54e48523d4896919df8c0", "fields": {"polling_district": "ASHG", "location_name": "St Werburghs Community Centre", "objectid": 70, "uprn_2": "000000235496", "locality": "St Werburghs", "geo_point_2d": [51.46810685721118, -2.571910767979793], "street": "Horley Road", "postcode": "BS2 9TJ", "dual": "No", "uprn": 235496, "geo_shape": {"type": "Point", "coordinates": [-2.571910767979793, 51.46810685721118]}, "pao": "St Werburghs Community Centre"}, "geometry": {"type": "Point", "coordinates": [-2.571910767979793, 51.46810685721118]}, "record_timestamp": "2018-01-09T02:01:06+00:00"}, {"datasetid": "polling-stations", "recordid": "54d27fac1a06fce16e44bcf95b7e48b2a8d4be4b", "fields": {"polling_district": "HOHB", "location_name": "The Create Centre", "objectid": 81, "uprn_2": "000000113107", "locality": "Hotwells", "geo_point_2d": [51.44710894426221, -2.622281236389658], "street": "Smeaton Road", "postcode": "BS1 6XN", "dual": "No", "uprn": 113107, "geo_shape": {"type": "Point", "coordinates": [-2.622281236389658, 51.44710894426221]}, "pao": "B Bond", "saon": "The Create Centre"}, "geometry": {"type": "Point", "coordinates": [-2.622281236389658, 51.44710894426221]}, "record_timestamp": "2018-01-09T02:01:06+00:00"}, {"datasetid": "polling-stations", "recordid": "41077b88755c84a7657d382c96c48e05ab47a17e", "fields": {"dual_stn": "BIAD & BIAC", "location_name": "Horfield Baptist Church", "objectid": 88, "uprn_2": "000000245048", "geo_point_2d": [51.479423806985814, -2.589111316813018], "polling_district": "BIAD", "street": "Gloucester Road", "postcode": "BS7 9DU", "dual": "Yes", "uprn": 47990, "geo_shape": {"type": "Point", "coordinates": [-2.589111316813018, 51.479423806985814]}, "pao": "Horfield Baptist Church"}, "geometry": {"type": "Point", "coordinates": [-2.589111316813018, 51.479423806985814]}, "record_timestamp": "2018-01-09T02:01:06+00:00"}, {"datasetid": "polling-stations", "recordid": "524653ff99886ef31e0a39c29bba66421afbe8c2", "fields": {"polling_district": "HORC", "location_name": "Horfield C.E V.C Primary School", "objectid": 106, "uprn_2": "000000253132", "locality": "Horfield", "geo_point_2d": [51.493843113050126, -2.594934216979213], "street": "Bishop Manor Road", "postcode": "BS10 5BD", "dual": "No", "uprn": 253132, "geo_shape": {"type": "Point", "coordinates": [-2.594934216979213, 51.493843113050126]}, "pao": "Horfield Church Of England Vc Primary School"}, "geometry": {"type": "Point", "coordinates": [-2.594934216979213, 51.493843113050126]}, "record_timestamp": "2018-01-09T02:01:06+00:00"}, {"datasetid": "polling-stations", "recordid": "233fdeb346fda2573a4c0a2083ef920aa596e545", "fields": {"polling_district": "WEHG", "location_name": "Portacabin on Tesco Carpark", "objectid": 115, "locality": "Henleaze", "geo_point_2d": [51.48655528046392, -2.596571203410384], "street": "Lime Trees Road", "postcode": "BS6 7XW", "dual": "No", "geo_shape": {"type": "Point", "coordinates": [-2.596571203410384, 51.48655528046392]}, "pao": "Portacabin on Tesco Carpark"}, "geometry": {"type": "Point", "coordinates": [-2.596571203410384, 51.48655528046392]}, "record_timestamp": "2018-01-09T02:01:06+00:00"}, {"datasetid": "polling-stations", "recordid": "fdb66e96ea699515630dd8454cf702a236ba9101", "fields": {"polling_district": "BEDD", "location_name": "Compass Point South Street Primary School", "objectid": 117, "uprn_2": "000000126428", "locality": "Bedminster", "dual_stn": "Used by BEDD and BEDF", "geo_point_2d": [51.43801267512626, -2.605746528300092], "street": "South Street", "postcode": "BS3 3AU", "dual": "Yes", "uprn": 126428, "geo_shape": {"type": "Point", "coordinates": [-2.605746528300092, 51.43801267512626]}, "access_desription": "Nursery Entrance South Street", "pao": "South Street Primary School"}, "geometry": {"type": "Point", "coordinates": [-2.605746528300092, 51.43801267512626]}, "record_timestamp": "2018-01-09T02:01:06+00:00"}, {"datasetid": "polling-stations", "recordid": "b69fb768ccc2b25aeb5f39108f383fdb2ab0c858", "fields": {"polling_district": "SGTD", "location_name": "Wesley Memorial Church Hall", "objectid": 121, "uprn_2": "000000278618", "locality": "St George", "geo_point_2d": [51.45316524779712, -2.525282411508048], "street": "Bryants Hill", "postcode": "BS5 8QS", "dual": "No", "uprn": 278618, "geo_shape": {"type": "Point", "coordinates": [-2.525282411508048, 51.45316524779712]}, "pao": "Wesley Memorial Church Hall"}, "geometry": {"type": "Point", "coordinates": [-2.525282411508048, 51.45316524779712]}, "record_timestamp": "2018-01-09T02:01:06+00:00"}, {"datasetid": "polling-stations", "recordid": "81c9b71592797609fe0a797d194bacfacfced9df", "fields": {"dual_stn": "Used by BREA and BREB", "location_name": "St Annes House", "objectid": 134, "uprn_2": "000000271803", "geo_point_2d": [51.452697237468854, -2.547722848350085], "polling_district": "BREA", "street": "St Annes Road", "postcode": "BS4 4AB", "dual": "Yes", "uprn": 271803, "geo_shape": {"type": "Point", "coordinates": [-2.547722848350085, 51.452697237468854]}, "pao": "St Annes House"}, "geometry": {"type": "Point", "coordinates": [-2.547722848350085, 51.452697237468854]}, "record_timestamp": "2018-01-09T02:01:06+00:00"}, {"datasetid": "polling-stations", "recordid": "4ce8fa676e7b735f32870e6616ca81f1ec55fa67", "fields": {"dual_stn": "Used by COTA and COTB", "location_name": "Friends Meeting House", "objectid": 135, "uprn_2": "000000067302 - need to check address", "geo_point_2d": [51.46878825252022, -2.608472395471249], "polling_district": "COTA", "street": "Hampton Road", "postcode": "BS6 6JE", "dual": "Yes", "uprn": 67302, "geo_shape": {"type": "Point", "coordinates": [-2.608472395471249, 51.46878825252022]}, "pao": "Friends Meeting House"}, "geometry": {"type": "Point", "coordinates": [-2.608472395471249, 51.46878825252022]}, "record_timestamp": "2018-01-09T02:01:06+00:00"}, {"datasetid": "polling-stations", "recordid": "a13dc90ffebbbff6a99a695b2fa624bff0dd53c9", "fields": {"polling_district": "AVLG", "location_name": "Shirehampton Hall", "objectid": 146, "uprn_2": "000000032995", "locality": "Shirehampton", "geo_point_2d": [51.486906263290834, -2.675395545490559], "street": "Station Road", "postcode": "BS11 9TX", "dual": "No", "uprn": 32995, "geo_shape": {"type": "Point", "coordinates": [-2.675395545490559, 51.486906263290834]}, "pao": "Shirehampton Hall", "saon": "32"}, "geometry": {"type": "Point", "coordinates": [-2.675395545490559, 51.486906263290834]}, "record_timestamp": "2018-01-09T02:01:06+00:00"}, {"datasetid": "polling-stations", "recordid": "6c6e87ec74b9ac6e11aed68b7ba924b080a57b89", "fields": {"polling_district": "WNHD", "location_name": "Victoria Park Baptist Church", "objectid": 147, "uprn_2": "000000355946", "locality": "Bedminster", "dual_stn": "Used by WNHE and WNHD", "geo_point_2d": [51.43754024892467, -2.583671124538859], "street": "Sylvia Avenue", "postcode": "BS3 5DA", "dual": "Yes", "uprn": 130452, "geo_shape": {"type": "Point", "coordinates": [-2.583671124538859, 51.43754024892467]}, "access_desription": "Sylvia Avenue", "pao": "Victoria Park Baptist Church"}, "geometry": {"type": "Point", "coordinates": [-2.583671124538859, 51.43754024892467]}, "record_timestamp": "2018-01-09T02:01:06+00:00"}, {"datasetid": "polling-stations", "recordid": "04047f2c5897c18bcdc3d029cc9d30692696f0ac", "fields": {"polling_district": "HAWA", "location_name": "Withywood Centre", "objectid": 149, "uprn_2": "000000307641", "locality": "Bishopsworth", "dual_stn": "Used by HAWA and HAWE", "geo_point_2d": [51.407769926925425, -2.621894982514408], "street": "Queens Road", "postcode": "BS13 8QA", "dual": "Yes", "uprn": 307641, "geo_shape": {"type": "Point", "coordinates": [-2.621894982514408, 51.407769926925425]}, "access_desription": "Queens Road", "pao": "Withywood Centre"}, "geometry": {"type": "Point", "coordinates": [-2.621894982514408, 51.407769926925425]}, "record_timestamp": "2018-01-09T02:01:06+00:00"}, {"datasetid": "polling-stations", "recordid": "c3b2e12cd97abfe8cf26d75b19f89128c466551c", "fields": {"polling_district": "WNHG", "location_name": "Marksbury Road Library", "objectid": 154, "uprn_2": "000000136944", "locality": "BS3 5GL", "geo_point_2d": [51.43374293761226, -2.602333281122814], "street": "Marksbury Road", "postcode": "BS3 5GL", "dual": "No", "uprn": 136944, "geo_shape": {"type": "Point", "coordinates": [-2.602333281122814, 51.43374293761226]}, "pao": "Marksbury Road Library"}, "geometry": {"type": "Point", "coordinates": [-2.602333281122814, 51.43374293761226]}, "record_timestamp": "2018-01-09T02:01:06+00:00"}, {"datasetid": "polling-stations", "recordid": "3969300b9636a9f3bf4bf9659768868bec6916e3", "fields": {"polling_district": "SVLB", "location_name": "St John Ambulance Harry Crook Centre", "objectid": 164, "uprn_2": "000000256299", "locality": "Southville", "geo_point_2d": [51.443898281735095, -2.611175138387638], "street": "Raleigh Road", "postcode": "BS3 1AP", "dual": "No", "uprn": 256299, "geo_shape": {"type": "Point", "coordinates": [-2.611175138387638, 51.443898281735095]}, "pao": "Harry Crook Centre"}, "geometry": {"type": "Point", "coordinates": [-2.611175138387638, 51.443898281735095]}, "record_timestamp": "2018-01-09T02:01:06+00:00"}, {"datasetid": "polling-stations", "recordid": "640bb1249b8072f7b3880b800a0204fddeb80daa", "fields": {"polling_district": "WNHC", "location_name": "St Michael And All Angels Church", "objectid": 170, "uprn_2": "000000298904", "locality": "Windmill Hill", "geo_point_2d": [51.440018510425, -2.591529496897269], "street": "Vivian Street", "postcode": "BS3 4LW", "dual": "No", "uprn": 298904, "geo_shape": {"type": "Point", "coordinates": [-2.591529496897269, 51.440018510425]}, "pao": "St Michael And All Angels Church"}, "geometry": {"type": "Point", "coordinates": [-2.591529496897269, 51.440018510425]}, "record_timestamp": "2018-01-09T02:01:06+00:00"}, {"datasetid": "polling-stations", "recordid": "5d194edbbe2cb518982b56b982fb3ce72588f3c7", "fields": {"polling_district": "REDD", "location_name": "Etloe Church", "objectid": 175, "uprn_2": "000000053527", "locality": "Redland", "geo_point_2d": [51.47594834559761, -2.60922963330001], "street": "Cossins Road", "postcode": "BS6 7LY", "dual": "No", "uprn": 53527, "geo_shape": {"type": "Point", "coordinates": [-2.60922963330001, 51.47594834559761]}, "pao": "Etloe Evangelical Church"}, "geometry": {"type": "Point", "coordinates": [-2.60922963330001, 51.47594834559761]}, "record_timestamp": "2018-01-09T02:01:06+00:00"}, {"datasetid": "polling-stations", "recordid": "567359a98fc30e60c5492e7ea50f11331ba4bf9f", "fields": {"polling_district": "BIAA", "location_name": "Horfield Parish Hall", "objectid": 179, "uprn_2": "000000184119", "locality": "Horfield", "geo_point_2d": [51.487219725413226, -2.589278621232415], "street": "Church Road", "postcode": "BS7 8ST", "dual": "No", "uprn": 280591, "geo_shape": {"type": "Point", "coordinates": [-2.589278621232415, 51.487219725413226]}, "pao": "Horfield Parish Hall"}, "geometry": {"type": "Point", "coordinates": [-2.589278621232415, 51.487219725413226]}, "record_timestamp": "2018-01-09T02:01:06+00:00"}, {"datasetid": "polling-stations", "recordid": "cf85b1b792f48e3135605d30e1167470d379bc1b", "fields": {"polling_district": "KNLG", "location_name": "Scout Headquarters", "objectid": 20, "uprn_2": "000000338887", "locality": "Knowle", "geo_point_2d": [51.432184638498214, -2.563686727442363], "street": "St Martins Road", "postcode": "BS4 2ND", "dual": "No", "uprn": 244950, "geo_shape": {"type": "Point", "coordinates": [-2.563686727442363, 51.432184638498214]}, "pao": "Land On The North Side Of (av50294)"}, "geometry": {"type": "Point", "coordinates": [-2.563686727442363, 51.432184638498214]}, "record_timestamp": "2018-01-09T02:01:06+00:00"}, {"datasetid": "polling-stations", "recordid": "a9e21fb5947e7b4b0ca785f23bf2f0d20e5b52ef", "fields": {"polling_district": "BRWC1", "location_name": "St. Christopher's Parish Hall", "objectid": 21, "uprn_2": "000000278730", "locality": "Brislington", "dual_stn": "BRWC1 and BRWC2", "geo_point_2d": [51.43763699128939, -2.560164510416417], "street": "Hampstead Road", "postcode": "BS4 3HJ", "dual": "Yes", "uprn": 278730, "geo_shape": {"type": "Point", "coordinates": [-2.560164510416417, 51.43763699128939]}, "pao": "St Christopher Church"}, "geometry": {"type": "Point", "coordinates": [-2.560164510416417, 51.43763699128939]}, "record_timestamp": "2018-01-09T02:01:06+00:00"}, {"datasetid": "polling-stations", "recordid": "0443931d0e27059215614643a1eca23c97453690", "fields": {"polling_district": "HEBA", "location_name": "Henbury Village Hall", "objectid": 23, "uprn_2": "000000298618", "locality": "Henbury", "dual_stn": "HEBA & HEBB", "geo_point_2d": [51.50689228538555, -2.630851465496181], "street": "Church Lane", "postcode": "BS10 7QF", "dual": "Yes", "uprn": 298618, "geo_shape": {"type": "Point", "coordinates": [-2.630851465496181, 51.50689228538555]}, "pao": "The Close House"}, "geometry": {"type": "Point", "coordinates": [-2.630851465496181, 51.50689228538555]}, "record_timestamp": "2018-01-09T02:01:06+00:00"}, {"datasetid": "polling-stations", "recordid": "4685478169eb254460534bb048695659e16a4a1c", "fields": {"polling_district": "BISD", "location_name": "Bishopsworth Children's Centre", "objectid": 36, "uprn_2": "000000280710 - check address", "locality": "Bishopsworth", "geo_point_2d": [51.415469499467896, -2.624774790948609], "street": "Lakemead Grove", "postcode": "BS13 8EA", "dual": "No", "uprn": 280710, "geo_shape": {"type": "Point", "coordinates": [-2.624774790948609, 51.415469499467896]}, "pao": "2"}, "geometry": {"type": "Point", "coordinates": [-2.624774790948609, 51.415469499467896]}, "record_timestamp": "2018-01-09T02:01:06+00:00"}, {"datasetid": "polling-stations", "recordid": "a85b7858a887a578bccf107defcc0d9d5b6eb5b6", "fields": {"polling_district": "FRVG", "location_name": "Fishponds Baptist Church Hall", "objectid": 46, "uprn_2": "000000041766", "locality": "Fishponds", "geo_point_2d": [51.48266673451601, -2.523259710059029], "street": "Downend Road", "postcode": "BS16 5AS", "dual": "No", "uprn": 41766, "geo_shape": {"type": "Point", "coordinates": [-2.523259710059029, 51.48266673451601]}, "pao": "Fishponds Baptist Church"}, "geometry": {"type": "Point", "coordinates": [-2.523259710059029, 51.48266673451601]}, "record_timestamp": "2018-01-09T02:01:06+00:00"}, {"datasetid": "polling-stations", "recordid": "c6a31e1ef6f492acc4a0422681478fccb004866b", "fields": {"polling_district": "SMDB", "location_name": "Bristol Plays Music", "objectid": 47, "uprn_2": "000000308865", "locality": "Southmead", "geo_point_2d": [51.50469663020968, -2.591243131925797], "street": "Stanton Road", "postcode": "BS10 5SJ", "dual": "No", "uprn": 308865, "geo_shape": {"type": "Point", "coordinates": [-2.591243131925797, 51.50469663020968]}, "access_desription": "Stanton Road", "pao": "Fonthill Training Centre"}, "geometry": {"type": "Point", "coordinates": [-2.591243131925797, 51.50469663020968]}, "record_timestamp": "2018-01-09T02:01:06+00:00"}, {"datasetid": "polling-stations", "recordid": "1c0d80ad22ce51e5f497014da76d6e8526f01e3a", "fields": {"polling_district": "CLDA", "location_name": "St Johns Church Of England School", "objectid": 51, "uprn_2": "000000067144", "locality": "Clifton", "geo_point_2d": [51.46886344285567, -2.616016770431036], "street": "Worrall Road", "postcode": "BS8 2UH", "dual": "No", "uprn": 67144, "geo_shape": {"type": "Point", "coordinates": [-2.616016770431036, 51.46886344285567]}, "access_desription": "Angelsea Place access", "pao": "St Johns Church Of England School"}, "geometry": {"type": "Point", "coordinates": [-2.616016770431036, 51.46886344285567]}, "record_timestamp": "2018-01-09T02:01:06+00:00"}, {"datasetid": "polling-stations", "recordid": "e0bc16ef637d4ef248b59a245d92d6c1f1e4c0a4", "fields": {"polling_district": "HWPE", "location_name": "Whitchurch Library", "objectid": 58, "uprn_2": "000000276047", "locality": "Hengrove", "dual_stn": "HWPE & HWPC", "geo_point_2d": [51.41401348469566, -2.5718247828682763], "street": "Oatlands Avenue", "postcode": "BS14 0SX", "dual": "Yes", "uprn": 276047, "geo_shape": {"type": "Point", "coordinates": [-2.5718247828682763, 51.41401348469566]}, "pao": "Whitchurch District Centre"}, "geometry": {"type": "Point", "coordinates": [-2.5718247828682763, 51.41401348469566]}, "record_timestamp": "2018-01-09T02:01:06+00:00"}, {"datasetid": "polling-stations", "recordid": "c844ec798ffd26d0455946f9c8f352427d0a7759", "fields": {"polling_district": "BRED", "location_name": "Wick Road Library", "objectid": 59, "uprn_2": "000000126038", "locality": "Brislington", "geo_point_2d": [51.43929579849929, -2.551667588852197], "street": "Wick Road", "postcode": "BS4 4HE", "dual": "No", "uprn": 126038, "geo_shape": {"type": "Point", "coordinates": [-2.551667588852197, 51.43929579849929]}, "pao": "Wick Road Library"}, "geometry": {"type": "Point", "coordinates": [-2.551667588852197, 51.43929579849929]}, "record_timestamp": "2018-01-09T02:01:06+00:00"}, {"datasetid": "polling-stations", "recordid": "2cbc8d0be9c858ecdd9e98136c3331d593c8778f", "fields": {"polling_district": "CLIB", "location_name": "Clifton Cathedral Apostle Room", "objectid": 69, "uprn_2": "000000092873", "locality": "Clifton", "dual_stn": "Used by CLIB and CLIA", "geo_point_2d": [51.459645399792514, -2.61632442290676], "street": "Clifton Park", "postcode": "BS8 3BX", "dual": "Yes", "uprn": 92873, "geo_shape": {"type": "Point", "coordinates": [-2.61632442290676, 51.459645399792514]}, "access_desription": "Worcester Road", "pao": "Clifton Cathedral Church"}, "geometry": {"type": "Point", "coordinates": [-2.61632442290676, 51.459645399792514]}, "record_timestamp": "2018-01-09T02:01:06+00:00"}, {"datasetid": "polling-stations", "recordid": "44e5141f04e6d86ddc6437009f1ff94c2eadf9c8", "fields": {"polling_district": "LOCB", "location_name": "Romney House", "objectid": 80, "uprn_2": "000000278003", "locality": "Lockleaze", "geo_point_2d": [51.494903758566736, -2.5603335076075533], "street": "Romney Avenue", "postcode": "BS7 9TB", "dual": "No", "uprn": 355902, "geo_shape": {"type": "Point", "coordinates": [-2.5603335076075533, 51.494903758566736]}, "pao": "Romney House"}, "geometry": {"type": "Point", "coordinates": [-2.5603335076075533, 51.494903758566736]}, "record_timestamp": "2018-01-09T02:01:06+00:00"}, {"datasetid": "polling-stations", "recordid": "f5e512b3916a56c5d3450523431b6e1c6a01af94", "fields": {"polling_district": "ASHF", "location_name": "Ivy Pentecostal Church", "objectid": 82, "uprn_2": "000000067651", "locality": "Montpelier", "dual_stn": "Used by ASHF and ASHE", "geo_point_2d": [51.46877707738382, -2.5792497575451563], "street": "Ashley Hill", "postcode": "BS6 5JD", "dual": "Yes", "uprn": 67651, "geo_shape": {"type": "Point", "coordinates": [-2.5792497575451563, 51.46877707738382]}, "pao": "Ivy Pentecostal Church"}, "geometry": {"type": "Point", "coordinates": [-2.5792497575451563, 51.46877707738382]}, "record_timestamp": "2018-01-09T02:01:06+00:00"}, {"datasetid": "polling-stations", "recordid": "aeb1e7e99000eb4916636412123482b53000aae6", "fields": {"polling_district": "HORD", "location_name": "Horfield Leisure Centre", "objectid": 87, "uprn_2": "000000020940", "locality": "Horfield", "geo_point_2d": [51.49348303577756, -2.583240536929658], "street": "Dorian Road", "postcode": "BS7 0XW", "dual": "No", "uprn": 20940, "geo_shape": {"type": "Point", "coordinates": [-2.583240536929658, 51.49348303577756]}, "pao": "Horfield Leisure Centre"}, "geometry": {"type": "Point", "coordinates": [-2.583240536929658, 51.49348303577756]}, "record_timestamp": "2018-01-09T02:01:06+00:00"}, {"datasetid": "polling-stations", "recordid": "6d2c226ab00297777bcbe09eda6194495303f352", "fields": {"polling_district": "HWPG", "location_name": "Wansdyke Primary School", "objectid": 98, "uprn_2": "000000165930", "locality": "Rookery Way", "geo_point_2d": [51.406726479670866, -2.580245168327997], "street": "School Close", "postcode": "BS14 0DU", "dual": "No", "uprn": 365792, "geo_shape": {"type": "Point", "coordinates": [-2.580245168327997, 51.406726479670866]}, "pao": "Wansdyke Primary School"}, "geometry": {"type": "Point", "coordinates": [-2.580245168327997, 51.406726479670866]}, "record_timestamp": "2018-01-09T02:01:06+00:00"}, {"datasetid": "polling-stations", "recordid": "0ba620ab447d634474bb20066948b7d49ced2c3d", "fields": {"polling_district": "ASHH", "location_name": "The Salvation Army, Bristol Citadel", "objectid": 100, "uprn_2": "000000079242", "locality": "St Pauls", "dual_stn": "ASHH & ASHD", "geo_point_2d": [51.46427536360973, -2.588707936164698], "street": "6 Ashley Road Bristol BS6 5NL", "postcode": "BS6 5NL", "dual": "Yes", "uprn": 79937, "geo_shape": {"type": "Point", "coordinates": [-2.588707936164698, 51.46427536360973]}, "pao": "The Salvation Army, Bristol Citadel"}, "geometry": {"type": "Point", "coordinates": [-2.588707936164698, 51.46427536360973]}, "record_timestamp": "2018-01-09T02:01:06+00:00"}, {"datasetid": "polling-stations", "recordid": "cbfb3f8c0c7f7e02c22d3bff98ecd89fdf66eb91", "fields": {"polling_district": "HAWD", "location_name": "South Bristol Methodist Church Hall", "uprn_2": "000000347603", "objectid": 101, "geo_point_2d": [51.40799049004448, -2.597719427460107], "street": "Mowcroft Road", "postcode": "BS13 0LT", "dual": "No", "uprn": 0, "geo_shape": {"type": "Point", "coordinates": [-2.597719427460107, 51.40799049004448]}, "pao": "South Bristol Methodist Church Hall"}, "geometry": {"type": "Point", "coordinates": [-2.597719427460107, 51.40799049004448]}, "record_timestamp": "2018-01-09T02:01:06+00:00"}, {"datasetid": "polling-stations", "recordid": "787cfc956d828d8d5d0e262ed14ea9a8308cb992", "fields": {"polling_district": "SGCC", "location_name": "Speedwell Methodist Church", "objectid": 114, "uprn_2": "000000280154", "locality": "St George", "geo_point_2d": [51.46653182873147, -2.524154728520462], "street": "Speedwell Road", "postcode": "BS15 1ES", "dual": "No", "uprn": 280154, "geo_shape": {"type": "Point", "coordinates": [-2.524154728520462, 51.46653182873147]}, "pao": "Speedwell Methodist Church"}, "geometry": {"type": "Point", "coordinates": [-2.524154728520462, 51.46653182873147]}, "record_timestamp": "2018-01-09T02:01:06+00:00"}, {"datasetid": "polling-stations", "recordid": "ff909d12b0015a9fb4cba7fd53debc2e463351fe", "fields": {"polling_district": "HOHD", "location_name": "Spike Island", "objectid": 120, "uprn_2": "000000260626", "locality": "Hotwells", "geo_point_2d": [51.44712113738564, -2.610961044355477], "street": "Cumberland Road", "postcode": "BS1 6UX", "dual": "No", "uprn": 260626, "geo_shape": {"type": "Point", "coordinates": [-2.610961044355477, 51.44712113738564]}, "pao": "133"}, "geometry": {"type": "Point", "coordinates": [-2.610961044355477, 51.44712113738564]}, "record_timestamp": "2018-01-09T02:01:06+00:00"}, {"datasetid": "polling-stations", "recordid": "de52512a26b85c038bd3d239434d398cda93ff46", "fields": {"polling_district": "BISE", "location_name": "Headley Park Community Centre", "objectid": 122, "uprn_2": "000000197943", "locality": "Bishopsworth", "dual_stn": "Used by BISE and BISF", "geo_point_2d": [51.4179628426823, -2.61062958778989], "street": "Headley Park Avenue", "postcode": "BS13 7NW", "dual": "Yes", "uprn": 197943, "geo_shape": {"type": "Point", "coordinates": [-2.61062958778989, 51.4179628426823]}, "pao": "Headley Park Community Association"}, "geometry": {"type": "Point", "coordinates": [-2.61062958778989, 51.4179628426823]}, "record_timestamp": "2018-01-09T02:01:06+00:00"}, {"datasetid": "polling-stations", "recordid": "da4940201691ae5649b01a29b20dec1789f0b151", "fields": {"polling_district": "CLDF", "location_name": "St Pauls Church Rooms", "objectid": 125, "uprn_2": "000000278621", "locality": "Clifton", "geo_point_2d": [51.45908706434867, -2.611336764206043], "street": "St Pauls Road", "postcode": "BS8 1LR", "dual": "No", "uprn": 278621, "geo_shape": {"type": "Point", "coordinates": [-2.611336764206043, 51.45908706434867]}, "pao": "St Pauls Church"}, "geometry": {"type": "Point", "coordinates": [-2.611336764206043, 51.45908706434867]}, "record_timestamp": "2018-01-09T02:01:06+00:00"}, {"datasetid": "polling-stations", "recordid": "e7cc0deb8e5319db4e9e07b48363149cf5f9fba8", "fields": {"polling_district": "STWB", "location_name": "Sturminster and Stockwood Community Centre", "objectid": 126, "uprn_2": "000000152726 need to check", "locality": "Stockwood", "geo_point_2d": [51.41939576364601, -2.553887017583318], "street": "Sturminster Road", "postcode": "BS14 8AU", "dual": "No", "uprn": 152726, "geo_shape": {"type": "Point", "coordinates": [-2.553887017583318, 51.41939576364601]}, "pao": "Sturminster Area Community Centre"}, "geometry": {"type": "Point", "coordinates": [-2.553887017583318, 51.41939576364601]}, "record_timestamp": "2018-01-09T02:01:06+00:00"}, {"datasetid": "polling-stations", "recordid": "31dddf06caf38a935020c9525cfd09cc4287be54", "fields": {"polling_district": "REDB", "location_name": "Bishop Road Primary School", "objectid": 127, "uprn_2": "000000047148", "locality": "Bishopston", "geo_point_2d": [51.479732500447135, -2.593713730649807], "street": "Bishop Road", "postcode": "BS7 8LS", "dual": "No", "uprn": 47148, "geo_shape": {"type": "Point", "coordinates": [-2.593713730649807, 51.479732500447135]}, "access_desription": "Bishop Road access", "pao": "Bishop Road Primary School"}, "geometry": {"type": "Point", "coordinates": [-2.593713730649807, 51.479732500447135]}, "record_timestamp": "2018-01-09T02:01:06+00:00"}, {"datasetid": "polling-stations", "recordid": "a97b2f03954846e22bdc091dd09836abcbdcee07", "fields": {"polling_district": "WNHF", "location_name": "Hillcrest Primary School", "uprn_2": "000000200893", "objectid": 137, "geo_point_2d": [51.43991382500711, -2.571228046025682], "street": "Cemetery Road", "postcode": "BS4 3BW", "dual": "No", "uprn": 200893, "geo_shape": {"type": "Point", "coordinates": [-2.571228046025682, 51.43991382500711]}, "pao": "Hillcrest Primary School"}, "geometry": {"type": "Point", "coordinates": [-2.571228046025682, 51.43991382500711]}, "record_timestamp": "2018-01-09T02:01:06+00:00"}, {"datasetid": "polling-stations", "recordid": "86d5b94e344354faf7475c46b8769f583beecf79", "fields": {"polling_district": "REDE", "location_name": "Redland Parish Church Hall", "objectid": 160, "uprn_2": "000000059910", "locality": "Redland", "dual_stn": "REDF and REDE", "geo_point_2d": [51.47247563200417, -2.607873168017459], "street": "Redland Green Road", "postcode": "BS6 7HE", "dual": "Yes", "uprn": 59910, "geo_shape": {"type": "Point", "coordinates": [-2.607873168017459, 51.47247563200417]}, "pao": "Redland Parish Church Hall"}, "geometry": {"type": "Point", "coordinates": [-2.607873168017459, 51.47247563200417]}, "record_timestamp": "2018-01-09T02:01:06+00:00"}, {"datasetid": "polling-stations", "recordid": "bc5dda51b5041a24df6b790486c3a365e936718d", "fields": {"polling_district": "STBD", "location_name": "Stoke Bishop Hall", "objectid": 165, "uprn_2": "000000046489", "locality": "Stoke Bishop", "geo_point_2d": [51.479782189218376, -2.6340198887031123], "street": "Stoke Hill", "postcode": "BS9 1EX", "dual": "No", "uprn": 278727, "geo_shape": {"type": "Point", "coordinates": [-2.6340198887031123, 51.479782189218376]}, "pao": "Stoke Hill Hall"}, "geometry": {"type": "Point", "coordinates": [-2.6340198887031123, 51.479782189218376]}, "record_timestamp": "2018-01-09T02:01:06+00:00"}, {"datasetid": "polling-stations", "recordid": "895f4ce2e4837104b6047b2017b8bf586b959f5f", "fields": {"polling_district": "ESVA", "location_name": "Stapleton Church Hall", "objectid": 174, "uprn_2": "000000278617", "locality": "Stapleton", "geo_point_2d": [51.48149646681394, -2.554840933894317], "street": "Park Road", "postcode": "BS16 1AZ", "dual": "No", "uprn": 278617, "geo_shape": {"type": "Point", "coordinates": [-2.554840933894317, 51.48149646681394]}, "pao": "Holy Trinity Church"}, "geometry": {"type": "Point", "coordinates": [-2.554840933894317, 51.48149646681394]}, "record_timestamp": "2018-01-09T02:01:06+00:00"}, {"datasetid": "polling-stations", "recordid": "6126b46a1775d3a5e0fea973d2e6d5026a9ac9e1", "fields": {"polling_district": "HILA", "location_name": "Ledbury Road Flats Community Room", "objectid": 177, "uprn_2": "000000328071", "locality": "Ledbury Road", "geo_point_2d": [51.479570017542656, -2.517800005793386], "street": "Ledbury Road", "postcode": "BS16 4AH", "dual": "No", "uprn": 328071, "geo_shape": {"type": "Point", "coordinates": [-2.517800005793386, 51.479570017542656]}, "pao": "Ledbury Road"}, "geometry": {"type": "Point", "coordinates": [-2.517800005793386, 51.479570017542656]}, "record_timestamp": "2018-01-09T02:01:06+00:00"}, {"datasetid": "polling-stations", "recordid": "ff6e212f074371dcfc667ee94cffa95415b8bde2", "fields": {"polling_district": "HWPB", "location_name": "Christ Church", "objectid": 6, "uprn_2": "000000300533", "locality": "Hengrove", "dual_stn": "Used by HWPA and HWPB", "geo_point_2d": [51.42136480277601, -2.5632055669785103], "street": "Petherton Road", "postcode": "BS14 9BP", "dual": "Yes", "uprn": 300533, "geo_shape": {"type": "Point", "coordinates": [-2.5632055669785103, 51.42136480277601]}, "access_desription": "Petherton Road", "pao": "Christ Church"}, "geometry": {"type": "Point", "coordinates": [-2.5632055669785103, 51.42136480277601]}, "record_timestamp": "2018-01-09T02:01:06+00:00"}, {"datasetid": "polling-stations", "recordid": "2930793ddd44b4b8018fe7935842556feaf94618", "fields": {"polling_district": "BRWB", "location_name": "St Cuthberts", "objectid": 13, "uprn_2": "000000302938", "locality": "Brislington", "geo_point_2d": [51.44004680080002, -2.552265096855951], "street": "Sandy Park Road", "postcode": "BS4 4HQ", "dual": "No", "uprn": 302938, "geo_shape": {"type": "Point", "coordinates": [-2.552265096855951, 51.44004680080002]}, "pao": "St Cuthberts"}, "geometry": {"type": "Point", "coordinates": [-2.552265096855951, 51.44004680080002]}, "record_timestamp": "2018-01-09T02:01:06+00:00"}, {"datasetid": "polling-stations", "recordid": "c7a82688a058efe82b05b226ac26d1686680d4ac", "fields": {"polling_district": "ASHA", "location_name": "St Bartholomews Church Hall", "objectid": 18, "uprn_2": "000000338210", "locality": "Montpelier", "dual_stn": "Used by ASHA and ASHC", "geo_point_2d": [51.47275166207392, -2.584279107735226], "street": "Maurice Road", "postcode": "BS6 5BT", "dual": "Yes", "uprn": 338210, "geo_shape": {"type": "Point", "coordinates": [-2.584279107735226, 51.47275166207392]}, "pao": "St Bartholomews Church Hall"}, "geometry": {"type": "Point", "coordinates": [-2.584279107735226, 51.47275166207392]}, "record_timestamp": "2018-01-09T02:01:06+00:00"}, {"datasetid": "polling-stations", "recordid": "1da6fb9365e0c11c9afcaf12ef8b9e85f6cb65a7", "fields": {"polling_district": "ASHJ", "location_name": "Malcolm X Community Centre", "objectid": 19, "uprn_2": "000000079242", "locality": "St Pauls", "geo_point_2d": [51.464998048122126, -2.584208653759546], "street": "141 City Road", "postcode": "BS2 8YH", "dual": "No", "uprn": 79242, "geo_shape": {"type": "Point", "coordinates": [-2.584208653759546, 51.464998048122126]}, "pao": "Malcolm X Centre"}, "geometry": {"type": "Point", "coordinates": [-2.584208653759546, 51.464998048122126]}, "record_timestamp": "2018-01-09T02:01:06+00:00"}, {"datasetid": "polling-stations", "recordid": "5b76bd1b2bc746844ff1bc07101d26e658aed339", "fields": {"polling_district": "HILC", "location_name": "Hillfields Library", "objectid": 25, "uprn_2": "000000055729", "locality": "Speedwell", "geo_point_2d": [51.474604352621846, -2.5164866105425503], "street": "Summerleaze", "postcode": "BS16 4HL", "dual": "No", "uprn": 55729, "geo_shape": {"type": "Point", "coordinates": [-2.5164866105425503, 51.474604352621846]}, "pao": "Hillfields Library"}, "geometry": {"type": "Point", "coordinates": [-2.5164866105425503, 51.474604352621846]}, "record_timestamp": "2018-01-09T02:01:06+00:00"}, {"datasetid": "polling-stations", "recordid": "616e1d53c7fff5c809997781be35cbe78423d39c", "fields": {"polling_district": "WEHK", "location_name": "Henleaze Library", "objectid": 26, "uprn_2": "000000260189", "locality": "Henleaze", "dual_stn": "WEHK & WEHJ", "geo_point_2d": [51.48082646893688, -2.611785906555693], "street": "Northumbria Drive", "postcode": "BS9 4HP", "dual": "Yes", "uprn": 260189, "geo_shape": {"type": "Point", "coordinates": [-2.611785906555693, 51.48082646893688]}, "pao": "Henleaze Library"}, "geometry": {"type": "Point", "coordinates": [-2.611785906555693, 51.48082646893688]}, "record_timestamp": "2018-01-09T02:01:06+00:00"}, {"datasetid": "polling-stations", "recordid": "b62cbabf8ec48b7c819867e38f8015217e8a732b", "fields": {"polling_district": "HAWC", "location_name": "The Gatehouse Centre", "objectid": 49, "uprn_2": "000000160288", "locality": "Hartcliffe", "geo_point_2d": [51.41223349896946, -2.610941452571681], "street": "Hareclive Road", "postcode": "BS13 9JN", "dual": "No", "uprn": 346651, "geo_shape": {"type": "Point", "coordinates": [-2.610941452571681, 51.41223349896946]}, "pao": "The Gatehouse Centre"}, "geometry": {"type": "Point", "coordinates": [-2.610941452571681, 51.41223349896946]}, "record_timestamp": "2018-01-09T02:01:06+00:00"}, {"datasetid": "polling-stations", "recordid": "8cdcfaf59060ef922d94ea9294961f12c3f02174", "fields": {"polling_district": "ESTA", "location_name": "St Marks Baptist Church", "objectid": 64, "uprn_2": "000000304652", "locality": "Eastville", "geo_point_2d": [51.46746230906222, -2.564829781862766], "street": "Coombe Road", "postcode": "BS5 6HX", "dual": "No", "uprn": 304652, "geo_shape": {"type": "Point", "coordinates": [-2.564829781862766, 51.46746230906222]}, "pao": "St Marks Baptist Church"}, "geometry": {"type": "Point", "coordinates": [-2.564829781862766, 51.46746230906222]}, "record_timestamp": "2018-01-09T02:01:06+00:00"}, {"datasetid": "polling-stations", "recordid": "c009d144e8377ce5c73d6f31a168868b53686701", "fields": {"polling_district": "SGWD", "location_name": "St. George Library", "objectid": 68, "uprn_2": "000000091711", "locality": "St George", "dual_stn": "SGWD & SGWB", "geo_point_2d": [51.460560116854644, -2.544165739314835], "street": "Church Road", "postcode": "BS5 8AL", "dual": "Yes", "uprn": 91711, "geo_shape": {"type": "Point", "coordinates": [-2.544165739314835, 51.460560116854644]}, "pao": "St George Library"}, "geometry": {"type": "Point", "coordinates": [-2.544165739314835, 51.460560116854644]}, "record_timestamp": "2018-01-09T02:01:06+00:00"}, {"datasetid": "polling-stations", "recordid": "0fff71c11c32910adcb45189fe6ab11f842875da", "fields": {"polling_district": "ESTB", "location_name": "The Church of God of Prophecy Hall", "objectid": 79, "uprn_2": "000000278650", "locality": "Easton", "geo_point_2d": [51.46608340870981, -2.560815221953296], "street": "Tudor Road", "postcode": "BS5 6BW", "dual": "No", "uprn": 278650, "geo_shape": {"type": "Point", "coordinates": [-2.560815221953296, 51.46608340870981]}, "pao": "The Church Of God Of Prophecy"}, "geometry": {"type": "Point", "coordinates": [-2.560815221953296, 51.46608340870981]}, "record_timestamp": "2018-01-09T02:01:06+00:00"}, {"datasetid": "polling-stations", "recordid": "d0b60b1e839a4b2b7ca50a0d04206d6bf89a15af", "fields": {"polling_district": "LOCD", "location_name": "The Hub", "objectid": 97, "uprn_2": "000000356760", "geo_point_2d": [51.48990597970209, -2.562675925903255], "street": "Gainsborough Square", "postcode": "BS7 9FB", "dual": "No", "uprn": 356760, "geo_shape": {"type": "Point", "coordinates": [-2.562675925903255, 51.48990597970209]}, "pao": "The Hub", "saon": "Fedden Buildings"}, "geometry": {"type": "Point", "coordinates": [-2.562675925903255, 51.48990597970209]}, "record_timestamp": "2018-01-09T02:01:06+00:00"}, {"datasetid": "polling-stations", "recordid": "21539d3c3f997d5a51cc07a1eea321c79e4f47ac", "fields": {"polling_district": "HOHA", "location_name": "City Hall", "uprn_2": "000000000001", "objectid": 103, "geo_point_2d": [51.45261242186209, -2.602035306226715], "street": "College Green", "postcode": "BS1 5TR", "dual": "No", "uprn": 1, "geo_shape": {"type": "Point", "coordinates": [-2.602035306226715, 51.45261242186209]}, "pao": "City Hall"}, "geometry": {"type": "Point", "coordinates": [-2.602035306226715, 51.45261242186209]}, "record_timestamp": "2018-01-09T02:01:06+00:00"}, {"datasetid": "polling-stations", "recordid": "859b5e72d31f839736311a862c889e732a9cf5d1", "fields": {"polling_district": "ESTE", "location_name": "Whitehall Primary School", "objectid": 107, "uprn_2": "000000181149", "locality": "Easton", "dual_stn": "Used by ESTE and ESTC", "geo_point_2d": [51.46496813047348, -2.5552161781730023], "street": "Johnsons Road", "postcode": "BS5 9AT", "dual": "Yes", "uprn": 181149, "geo_shape": {"type": "Point", "coordinates": [-2.5552161781730023, 51.46496813047348]},