<response><row><row _id="1" _uuid="022FA282-C213-43DA-B2F6-6592FFFCF1D0" _position="1" _address="https://opendata.camden.gov.uk/resource/_5rhh-fxna/1"><election_name>Parliamentary Election - 8 June 2017</election_name><polling_district_name>AA</polling_district_name><organisation>New End Primary School</organisation><street>Streatley Place</street><postcode>NW3 1HU</postcode><ward_name>Hampstead Town</ward_name><parliamentary_constituency_name>Hampstead and Kilburn</parliamentary_constituency_name><easting>526491</easting><northing>185909</northing><longitude>-0.176775</longitude><latitude>51.5579</latitude><location latitude="51.5579" longitude="-0.176775" needs_recoding="false"/><spatial_accuracy>Local Land And Property Gazetteer</spatial_accuracy><socrata_id>1</socrata_id><last_uploaded>2017-06-08T09:38:11</last_uploaded></row><row _id="2" _uuid="F7D2B090-9709-436E-BCEF-D4A68F4C08E9" _position="2" _address="https://opendata.camden.gov.uk/resource/_5rhh-fxna/2"><election_name>Parliamentary Election - 8 June 2017</election_name><polling_district_name>AB</polling_district_name><organisation>Fitzjohn's Primary School</organisation><street>Fitzjohn's Avenue</street><postcode>NW3 6NP</postcode><ward_name>Hampstead Town</ward_name><parliamentary_constituency_name>Hampstead and Kilburn</parliamentary_constituency_name><easting>526614</easting><northing>185439</northing><longitude>-0.175171</longitude><latitude>51.553649</latitude><location latitude="51.553649" longitude="-0.175171" needs_recoding="false"/><spatial_accuracy>Local Land And Property Gazetteer</spatial_accuracy><socrata_id>2</socrata_id><last_uploaded>2017-06-08T09:38:11</last_uploaded></row><row _id="3" _uuid="8133E936-7F31-462B-A55C-B1E292D02723" _position="3" _address="https://opendata.camden.gov.uk/resource/_5rhh-fxna/3"><election_name>Parliamentary Election - 8 June 2017</election_name><polling_district_name>AC</polling_district_name><organisation>Heath Branch Library</organisation><street>Keats Grove</street><postcode>NW3 2RR</postcode><ward_name>Hampstead Town</ward_name><parliamentary_constituency_name>Hampstead and Kilburn</parliamentary_constituency_name><easting>527089</easting><northing>185656</northing><longitude>-0.168245</longitude><latitude>51.555492</latitude><location latitude="51.555492" longitude="-0.168245" needs_recoding="false"/><spatial_accuracy>Local Land And Property Gazetteer</spatial_accuracy><socrata_id>3</socrata_id><last_uploaded>2017-06-08T09:38:11</last_uploaded></row><row _id="4" _uuid="8D1AF55B-9331-4ED3-A7C4-409037FA9D5E" _position="4" _address="https://opendata.camden.gov.uk/resource/_5rhh-fxna/4"><election_name>Parliamentary Election - 8 June 2017</election_name><polling_district_name>BA</polling_district_name><organisation>Holly Lodge Community Centre</organisation><street>Makepeace Avenue</street><postcode>N6 6HL</postcode><ward_name>Highgate</ward_name><parliamentary_constituency_name>Holborn and St. Pancras</parliamentary_constituency_name><easting>528445</easting><northing>186710</northing><longitude>-0.148312</longitude><latitude>51.564658</latitude><location latitude="51.564658" longitude="-0.148312" needs_recoding="false"/><spatial_accuracy>Local Land And Property Gazetteer</spatial_accuracy><socrata_id>4</socrata_id><last_uploaded>2017-06-08T09:38:11</last_uploaded></row><row _id="5" _uuid="FD606217-7E81-4FD8-933D-770C2172B3F3" _position="5" _address="https://opendata.camden.gov.uk/resource/_5rhh-fxna/5"><election_name>Parliamentary Election - 8 June 2017</election_name><polling_district_name>BB</polling_district_name><organisation>Highgate Road Chapel</organisation><street>Chetwynd Road</street><postcode>NW5 1BU</postcode><ward_name>Highgate</ward_name><parliamentary_constituency_name>Holborn and St. Pancras</parliamentary_constituency_name><easting>528658</easting><northing>185859</northing><longitude>-0.145552</longitude><latitude>51.556961</latitude><location latitude="51.556961" longitude="-0.145552" needs_recoding="false"/><spatial_accuracy>Local Land And Property Gazetteer</spatial_accuracy><socrata_id>5</socrata_id><last_uploaded>2017-06-08T09:38:11</last_uploaded></row><row _id="6" _uuid="69A3E616-F95F-4709-BEDC-C7617C03726C" _position="6" _address="https://opendata.camden.gov.uk/resource/_5rhh-fxna/6"><election_name>Parliamentary Election - 8 June 2017</election_name><polling_district_name>BC</polling_district_name><organisation>Highgate Library Civic and Cultural Centre</organisation><street>Chester Road</street><postcode>N19 5DH</postcode><ward_name>Highgate</ward_name><parliamentary_constituency_name>Holborn and St. Pancras</parliamentary_constituency_name><easting>528739</easting><northing>186620</northing><longitude>-0.144106</longitude><latitude>51.563782</latitude><location latitude="51.563782" longitude="-0.144106" needs_recoding="false"/><spatial_accuracy>Local Land And Property Gazetteer</spatial_accuracy><socrata_id>6</socrata_id><last_uploaded>2017-06-08T09:38:11</last_uploaded></row><row _id="7" _uuid="9F507692-A5D7-4FAA-A7E3-861CDDBFF6CA" _position="7" _address="https://opendata.camden.gov.uk/resource/_5rhh-fxna/7"><election_name>Parliamentary Election - 8 June 2017</election_name><polling_district_name>CA</polling_district_name><organisation>St Luke's Church of England School</organisation><street>Kidderpore Avenue</street><postcode>NW3 7SU</postcode><ward_name>Frognal and Fitzjohns</ward_name><parliamentary_constituency_name>Hampstead and Kilburn</parliamentary_constituency_name><easting>525269</easting><northing>185902</northing><longitude>-0.194395</longitude><latitude>51.55811</latitude><location latitude="51.55811" longitude="-0.194395" needs_recoding="false"/><spatial_accuracy>Local Land And Property Gazetteer</spatial_accuracy><socrata_id>7</socrata_id><last_uploaded>2017-06-08T09:38:11</last_uploaded></row><row _id="8" _uuid="30F76CBE-738A-4D9F-9EB9-E09C44D87455" _position="8" _address="https://opendata.camden.gov.uk/resource/_5rhh-fxna/8"><election_name>Parliamentary Election - 8 June 2017</election_name><polling_district_name>CB</polling_district_name><organisation>Hampstead Parochial School</organisation><street>Holly Bush Vale</street><postcode>NW3 6TX</postcode><ward_name>Frognal and Fitzjohns</ward_name><parliamentary_constituency_name>Hampstead and Kilburn</parliamentary_constituency_name><easting>526307</easting><northing>185730</northing><longitude>-0.179492</longitude><latitude>51.556333</latitude><location latitude="51.556333" longitude="-0.179492" needs_recoding="false"/><spatial_accuracy>Local Land And Property Gazetteer</spatial_accuracy><socrata_id>8</socrata_id><last_uploaded>2017-06-08T09:38:11</last_uploaded></row><row _id="9" _uuid="91756064-196D-44EC-AC48-54A6F8DDC8E1" _position="9" _address="https://opendata.camden.gov.uk/resource/_5rhh-fxna/9"><election_name>Parliamentary Election - 8 June 2017</election_name><polling_district_name>CC</polling_district_name><organisation>Holy Trinity Church Hall</organisation><street>Sumpter Close</street><postcode>NW3 5HR</postcode><ward_name>Frognal and Fitzjohns</ward_name><parliamentary_constituency_name>Hampstead and Kilburn</parliamentary_constituency_name><easting>526371</easting><northing>184697</northing><longitude>-0.17894</longitude><latitude>51.547035</latitude><location latitude="51.547035" longitude="-0.17894" needs_recoding="false"/><spatial_accuracy>Local Land And Property Gazetteer</spatial_accuracy><socrata_id>9</socrata_id><last_uploaded>2017-06-08T09:38:11</last_uploaded></row><row _id="10" _uuid="15F95BEF-1ACD-402C-829F-D4C8BCC8B8F7" _position="10" _address="https://opendata.camden.gov.uk/resource/_5rhh-fxna/10"><election_name>Parliamentary Election - 8 June 2017</election_name><polling_district_name>DA</polling_district_name><organisation>Templar House Social Hall</organisation><street>Shoot-Up Hill</street><postcode>NW2 3TD</postcode><ward_name>Fortune Green</ward_name><parliamentary_constituency_name>Hampstead and Kilburn</parliamentary_constituency_name><easting>524583</easting><northing>184805</northing><longitude>-0.204674</longitude><latitude>51.548403</latitude><location latitude="51.548403" longitude="-0.204674" needs_recoding="false"/><spatial_accuracy>Local Land And Property Gazetteer</spatial_accuracy><socrata_id>10</socrata_id><last_uploaded>2017-06-08T09:38:11</last_uploaded></row><row _id="11" _uuid="D965077B-59C3-434E-9BAF-CC4BB960FD82" _position="11" _address="https://opendata.camden.gov.uk/resource/_5rhh-fxna/11"><election_name>Parliamentary Election - 8 June 2017</election_name><polling_district_name>DB</polling_district_name><organisation>Beckford Primary School</organisation><street>Dornfell Street</street><postcode>NW6 1QL</postcode><ward_name>Fortune Green</ward_name><parliamentary_constituency_name>Hampstead and Kilburn</parliamentary_constituency_name><easting>524934</easting><northing>185067</northing><longitude>-0.199522</longitude><latitude>51.55068</latitude><location latitude="51.55068" longitude="-0.199522" needs_recoding="false"/><spatial_accuracy>Local Land And Property Gazetteer</spatial_accuracy><socrata_id>11</socrata_id><last_uploaded>2017-06-08T09:38:11</last_uploaded></row><row _id="12" _uuid="6BBC7A6C-0350-4D16-8750-D5C2B120CFEC" _position="12" _address="https://opendata.camden.gov.uk/resource/_5rhh-fxna/12"><election_name>Parliamentary Election - 8 June 2017</election_name><polling_district_name>DC</polling_district_name><organisation>Emmanuel Church</organisation><street>Lyncroft Gardens</street><postcode>NW6 1JU</postcode><ward_name>Fortune Green</ward_name><parliamentary_constituency_name>Hampstead and Kilburn</parliamentary_constituency_name><easting>525413</easting><northing>185302</northing><longitude>-0.192533</longitude><latitude>51.552686</latitude><location latitude="51.552686" longitude="-0.192533" needs_recoding="false"/><spatial_accuracy>Local Land And Property Gazetteer</spatial_accuracy><socrata_id>12</socrata_id><last_uploaded>2017-06-08T09:38:11</last_uploaded></row><row _id="13" _uuid="0E7EE970-6DE1-45EB-9026-AB7B3A671996" _position="13" _address="https://opendata.camden.gov.uk/resource/_5rhh-fxna/13"><election_name>Parliamentary Election - 8 June 2017</election_name><polling_district_name>EA</polling_district_name><organisation>West Hampstead Branch Library</organisation><street>Dennington Park Road</street><postcode>NW6 1AU</postcode><ward_name>West Hampstead</ward_name><parliamentary_constituency_name>Hampstead and Kilburn</parliamentary_constituency_name><easting>525481</easting><northing>185041</northing><longitude>-0.191646</longitude><latitude>51.550325</latitude><location latitude="51.550325" longitude="-0.191646" needs_recoding="false"/><spatial_accuracy>Local Land And Property Gazetteer</spatial_accuracy><socrata_id>13</socrata_id><last_uploaded>2017-06-08T09:38:11</last_uploaded></row><row _id="14" _uuid="C4CE5C55-94C2-4EAF-B866-50A6583078F6" _position="14" _address="https://opendata.camden.gov.uk/resource/_5rhh-fxna/14"><election_name>Parliamentary Election - 8 June 2017</election_name><polling_district_name>EB</polling_district_name><organisation>Lymington Road Residents Association Hall</organisation><street>Dresden Close</street><postcode>NW6 1XP</postcode><ward_name>West Hampstead</ward_name><parliamentary_constituency_name>Hampstead and Kilburn</parliamentary_constituency_name><easting>525982</easting><northing>185031</northing><longitude>-0.184428</longitude><latitude>51.550124</latitude><location latitude="51.550124" longitude="-0.184428" needs_recoding="false"/><spatial_accuracy>Local Land And Property Gazetteer</spatial_accuracy><socrata_id>14</socrata_id><last_uploaded>2017-06-08T09:38:11</last_uploaded></row><row _id="15" _uuid="39816058-3F27-43AC-8BDE-CEB280CA9A20" _position="15" _address="https://opendata.camden.gov.uk/resource/_5rhh-fxna/15"><election_name>Parliamentary Election - 8 June 2017</election_name><polling_district_name>EC</polling_district_name><organisation>Brondesbury Christian Centre</organisation><street>Iverson Road</street><postcode>NW6 2QT</postcode><ward_name>West Hampstead</ward_name><parliamentary_constituency_name>Hampstead and Kilburn</parliamentary_constituency_name><easting>524791</easting><northing>184564</northing><longitude>-0.201761</longitude><latitude>51.546191</latitude><location latitude="51.546191" longitude="-0.201761" needs_recoding="false"/><spatial_accuracy>Local Land And Property Gazetteer</spatial_accuracy><socrata_id>15</socrata_id><last_uploaded>2017-06-08T09:38:11</last_uploaded></row><row _id="16" _uuid="87911F86-CB74-4867-8EB9-DDD28F0B06AF" _position="16" _address="https://opendata.camden.gov.uk/resource/_5rhh-fxna/16"><election_name>Parliamentary Election - 8 June 2017</election_name><polling_district_name>ED</polling_district_name><organisation>St James Hall</organisation><street>Sherriff Road</street><postcode>NW6 2AP</postcode><ward_name>West Hampstead</ward_name><parliamentary_constituency_name>Hampstead and Kilburn</parliamentary_constituency_name><easting>525449</easting><northing>184541</northing><longitude>-0.192285</longitude><latitude>51.545839</latitude><location latitude="51.545839" longitude="-0.192285" needs_recoding="false"/><spatial_accuracy>Local Land And Property Gazetteer</spatial_accuracy><socrata_id>16</socrata_id><last_uploaded>2017-06-08T09:38:11</last_uploaded></row><row _id="17" _uuid="064546AD-22F5-4EE1-A83A-C8FA5167C597" _position="17" _address="https://opendata.camden.gov.uk/resource/_5rhh-fxna/17"><election_name>Parliamentary Election - 8 June 2017</election_name><polling_district_name>FA</polling_district_name><organisation>Kingsgate Community Centre</organisation><street>Kingsgate Road</street><postcode>NW6 2JH</postcode><ward_name>Kilburn</ward_name><parliamentary_constituency_name>Hampstead and Kilburn</parliamentary_constituency_name><easting>525177</easting><northing>184362</northing><longitude>-0.196269</longitude><latitude>51.54429</latitude><location latitude="51.54429" longitude="-0.196269" needs_recoding="false"/><spatial_accuracy>Local Land And Property Gazetteer</spatial_accuracy><socrata_id>17</socrata_id><last_uploaded>2017-06-08T09:38:11</last_uploaded></row><row _id="18" _uuid="090B03B1-EBF1-4912-AF0B-60F5D777FEAE" _position="18" _address="https://opendata.camden.gov.uk/resource/_5rhh-fxna/18"><election_name>Parliamentary Election - 8 June 2017</election_name><polling_district_name>FB</polling_district_name><organisation>Abbey Community Centre</organisation><street>Belsize Road</street><postcode>NW6 4DJ</postcode><ward_name>Kilburn</ward_name><parliamentary_constituency_name>Hampstead and Kilburn</parliamentary_constituency_name><easting>525714</easting><northing>183841</northing><longitude>-0.188715</longitude><latitude>51.539489</latitude><location latitude="51.539489" longitude="-0.188715" needs_recoding="false"/><spatial_accuracy>Local Land And Property Gazetteer</spatial_accuracy><socrata_id>18</socrata_id><last_uploaded>2017-06-08T09:38:11</last_uploaded></row><row _id="19" _uuid="1ADE3D74-3FEC-4D00-A115-989FEABB8920" _position="19" _address="https://opendata.camden.gov.uk/resource/_5rhh-fxna/19"><election_name>Parliamentary Election - 8 June 2017</election_name><polling_district_name>FC</polling_district_name><organisation>SHELL Centre 2</organisation><street>Boundary Road</street><postcode>NW8 0HU</postcode><ward_name>Kilburn</ward_name><parliamentary_constituency_name>Hampstead and Kilburn</parliamentary_constituency_name><easting>526072</easting><northing>183789</northing><longitude>-0.183575</longitude><latitude>51.538942</latitude><location latitude="51.538942" longitude="-0.183575" needs_recoding="false"/><spatial_accuracy>Local Land And Property Gazetteer</spatial_accuracy><socrata_id>19</socrata_id><last_uploaded>2017-06-08T09:38:11</last_uploaded></row><row _id="20" _uuid="3C70D8FA-670A-4250-8E00-088D7303E8A0" _position="20" _address="https://opendata.camden.gov.uk/resource/_5rhh-fxna/20"><election_name>Parliamentary Election - 8 June 2017</election_name><polling_district_name>FD</polling_district_name><organisation>Mortimer Crescent Tenants and Residents Association Hall</organisation><street>Mortimer Crescent</street><postcode>NW6 5UR</postcode><ward_name>Kilburn</ward_name><parliamentary_constituency_name>Hampstead and Kilburn</parliamentary_constituency_name><easting>525733</easting><northing>183519</northing><longitude>-0.188556</longitude><latitude>51.536591</latitude><location latitude="51.536591" longitude="-0.188556" needs_recoding="false"/><spatial_accuracy>Local Land And Property Gazetteer</spatial_accuracy><socrata_id>20</socrata_id><last_uploaded>2017-06-08T09:38:11</last_uploaded></row><row _id="21" _uuid="5F14CFD6-2F00-45B8-BEAA-E7409CC9ADE5" _position="21" _address="https://opendata.camden.gov.uk/resource/_5rhh-fxna/21"><election_name>Parliamentary Election - 8 June 2017</election_name><polling_district_name>GA</polling_district_name><organisation>St Marys Community Hall</organisation><street>Abbey Road</street><postcode>NW6 4SR</postcode><ward_name>Swiss Cottage</ward_name><parliamentary_constituency_name>Hampstead and Kilburn</parliamentary_constituency_name><easting>525712</easting><northing>184035</northing><longitude>-0.188675</longitude><latitude>51.541233</latitude><location latitude="51.541233" longitude="-0.188675" needs_recoding="false"/><spatial_accuracy>Local Land And Property Gazetteer</spatial_accuracy><socrata_id>21</socrata_id><last_uploaded>2017-06-08T09:38:11</last_uploaded></row><row _id="22" _uuid="B5F0FE52-4E7E-44AA-A581-10E17C6C1D75" _position="22" _address="https://opendata.camden.gov.uk/resource/_5rhh-fxna/22"><election_name>Parliamentary Election - 8 June 2017</election_name><polling_district_name>GB</polling_district_name><organisation>Crossfield Day Centre</organisation><street>Fairhazel Gardens</street><postcode>NW6 3SG</postcode><ward_name>Swiss Cottage</ward_name><parliamentary_constituency_name>Hampstead and Kilburn</parliamentary_constituency_name><easting>526259</easting><northing>184156</northing><longitude>-0.180748</longitude><latitude>51.542198</latitude><location latitude="51.542198" longitude="-0.180748" needs_recoding="false"/><spatial_accuracy>Local Land And Property Gazetteer</spatial_accuracy><socrata_id>22</socrata_id><last_uploaded>2017-06-08T09:38:11</last_uploaded></row><row _id="23" _uuid="A1F0EFBD-C4FA-4EBF-BE21-D22D56083D67" _position="23" _address="https://opendata.camden.gov.uk/resource/_5rhh-fxna/23"><election_name>Parliamentary Election - 8 June 2017</election_name><polling_district_name>GC</polling_district_name><organisation>Swiss Cottage Library (Glass Foyer)</organisation><street>Avenue Road</street><postcode>NW3 3HA</postcode><ward_name>Swiss Cottage</ward_name><parliamentary_constituency_name>Hampstead and Kilburn</parliamentary_constituency_name><easting>526779</easting><northing>184180</northing><longitude>-0.173245</longitude><latitude>51.542298</latitude><location latitude="51.542298" longitude="-0.173245" needs_recoding="false"/><spatial_accuracy>Local Land And Property Gazetteer</spatial_accuracy><socrata_id>23</socrata_id><last_uploaded>2017-06-08T09:38:11</last_uploaded></row><row _id="24" _uuid="172A7E89-C7E7-4D2F-8139-FA116B7B77E1" _position="24" _address="https://opendata.camden.gov.uk/resource/_5rhh-fxna/24"><election_name>Parliamentary Election - 8 June 2017</election_name><polling_district_name>HA</polling_district_name><organisation>Belsize Synagogue</organisation><street>Belsize Square</street><postcode>NW3 4HX</postcode><ward_name>Belsize</ward_name><parliamentary_constituency_name>Hampstead and Kilburn</parliamentary_constituency_name><easting>526965</easting><northing>184750</northing><longitude>-0.170359</longitude><latitude>51.547378</latitude><location latitude="51.547378" longitude="-0.170359" needs_recoding="false"/><spatial_accuracy>Local Land And Property Gazetteer</spatial_accuracy><socrata_id>24</socrata_id><last_uploaded>2017-06-08T09:38:11</last_uploaded></row><row _id="25" _uuid="F92E5BFB-E8E1-4265-B122-DA736F6BF188" _position="25" _address="https://opendata.camden.gov.uk/resource/_5rhh-fxna/25"><election_name>Parliamentary Election - 8 June 2017</election_name><polling_district_name>HB</polling_district_name><organisation>Belsize Branch Library</organisation><street>Antrim Road</street><postcode>NW3 4XN</postcode><ward_name>Belsize</ward_name><parliamentary_constituency_name>Hampstead and Kilburn</parliamentary_constituency_name><easting>527523</easting><northing>184823</northing><longitude>-0.16229</longitude><latitude>51.547909</latitude><location latitude="51.547909" longitude="-0.16229" needs_recoding="false"/><spatial_accuracy>Local Land And Property Gazetteer</spatial_accuracy><socrata_id>25</socrata_id><last_uploaded>2017-06-08T09:38:11</last_uploaded></row><row _id="26" _uuid="EBA18CF1-05CE-4955-BE06-C785494C898D" _position="26" _address="https://opendata.camden.gov.uk/resource/_5rhh-fxna/26"><election_name>Parliamentary Election - 8 June 2017</election_name><polling_district_name>HC</polling_district_name><organisation>Bray Tenants Hall</organisation><street>Fellows Road</street><postcode>NW3 3JX</postcode><ward_name>Belsize</ward_name><parliamentary_constituency_name>Hampstead and Kilburn</parliamentary_constituency_name><easting>527247</easting><northing>184337</northing><longitude>-0.166444</longitude><latitude>51.543603</latitude><location latitude="51.543603" longitude="-0.166444" needs_recoding="false"/><spatial_accuracy>Local Land And Property Gazetteer</spatial_accuracy><socrata_id>26</socrata_id><last_uploaded>2017-06-08T09:38:11</last_uploaded></row><row _id="27" _uuid="A8135360-5CD3-4821-AA00-1B0A2201AD8F" _position="27" _address="https://opendata.camden.gov.uk/resource/_5rhh-fxna/27"><election_name>Parliamentary Election - 8 June 2017</election_name><polling_district_name>IA</polling_district_name><organisation>Gospel Oak Methodist Church</organisation><street>Agincourt Road</street><postcode>NW3 2NT</postcode><ward_name>Gospel Oak</ward_name><parliamentary_constituency_name>Holborn and St. Pancras</parliamentary_constituency_name><easting>527746</easting><northing>185495</northing><longitude>-0.158832</longitude><latitude>51.553897</latitude><location latitude="51.553897" longitude="-0.158832" needs_recoding="false"/><spatial_accuracy>Local Land And Property Gazetteer</spatial_accuracy><socrata_id>27</socrata_id><last_uploaded>2017-06-08T09:38:11</last_uploaded></row><row _id="28" _uuid="57D69246-4B51-4EDD-957B-17BA1C8792F6" _position="28" _address="https://opendata.camden.gov.uk/resource/_5rhh-fxna/28"><election_name>Parliamentary Election - 8 June 2017</election_name><polling_district_name>IB</polling_district_name><organisation>Kiln Place Tenants Association Hall</organisation><street>Kiln Place</street><postcode>NW5 4AP</postcode><ward_name>Gospel Oak</ward_name><parliamentary_constituency_name>Holborn and St. Pancras</parliamentary_constituency_name><easting>528276</easting><northing>185519</northing><longitude>-0.151183</longitude><latitude>51.553993</latitude><location latitude="51.553993" longitude="-0.151183" needs_recoding="false"/><spatial_accuracy>Local Land And Property Gazetteer</spatial_accuracy><socrata_id>28</socrata_id><last_uploaded>2017-06-08T09:38:11</last_uploaded></row><row _id="29" _uuid="FC558057-FA34-4246-9EBF-E06A7440C308" _position="29" _address="https://opendata.camden.gov.uk/resource/_5rhh-fxna/29"><election_name>Parliamentary Election - 8 June 2017</election_name><polling_district_name>IC</polling_district_name><organisation>Queens Crescent Community Centre</organisation><street>Ashdown Crescent</street><postcode>NW5 4QE</postcode><ward_name>Gospel Oak</ward_name><parliamentary_constituency_name>Holborn and St. Pancras</parliamentary_constituency_name><easting>528214</easting><northing>185089</northing><longitude>-0.152233</longitude><latitude>51.550143</latitude><location latitude="51.550143" longitude="-0.152233" needs_recoding="false"/><spatial_accuracy>Local Land And Property Gazetteer</spatial_accuracy><socrata_id>29</socrata_id><last_uploaded>2017-06-08T09:38:11</last_uploaded></row><row _id="30" _uuid="7C9A39E6-8EDA-4065-88A4-D831606C87DD" _position="30" _address="https://opendata.camden.gov.uk/resource/_5rhh-fxna/30"><election_name>Parliamentary Election - 8 June 2017</election_name><polling_district_name>JA</polling_district_name><organisation>Rainbow Nursery</organisation><street>Lupton Street</street><postcode>NW5 2JB</postcode><ward_name>Kentish Town</ward_name><parliamentary_constituency_name>Holborn and St. Pancras</parliamentary_constituency_name><easting>529179</easting><northing>185588</northing><longitude>-0.13814</longitude><latitude>51.554407</latitude><location latitude="51.554407" longitude="-0.13814" needs_recoding="false"/><spatial_accuracy>Local Land And Property Gazetteer</spatial_accuracy><socrata_id>30</socrata_id><last_uploaded>2017-06-08T09:38:11</last_uploaded></row><row _id="31" _uuid="A5B1852F-5D3F-4B25-84CF-C31A4D4E911E" _position="31" _address="https://opendata.camden.gov.uk/resource/_5rhh-fxna/31"><election_name>Parliamentary Election - 8 June 2017</election_name><polling_district_name>JB</polling_district_name><organisation>Kentish Town Congregational Church</organisation><street>Kelly Street</street><postcode>NW1 8PH</postcode><ward_name>Kentish Town</ward_name><parliamentary_constituency_name>Holborn and St. Pancras</parliamentary_constituency_name><easting>528859</easting><northing>184651</northing><longitude>-0.143096</longitude><latitude>51.54606</latitude><location latitude="51.54606" longitude="-0.143096" needs_recoding="false"/><spatial_accuracy>Local Land And Property Gazetteer</spatial_accuracy><socrata_id>31</socrata_id><last_uploaded>2017-06-08T09:38:11</last_uploaded></row><row _id="32" _uuid="34DAB411-37BA-4DC5-8D79-4B73C3D81702" _position="32" _address="https://opendata.camden.gov.uk/resource/_5rhh-fxna/32"><election_name>Parliamentary Election - 8 June 2017</election_name><polling_district_name>JC</polling_district_name><organisation>Kentish Town Primary School</organisation><street>Islip Street</street><postcode>NW5 2TU</postcode><ward_name>Kentish Town</ward_name><parliamentary_constituency_name>Holborn and St. Pancras</parliamentary_constituency_name><easting>529113</easting><northing>185066</northing><longitude>-0.139283</longitude><latitude>51.549731</latitude><location latitude="51.549731" longitude="-0.139283" needs_recoding="false"/><spatial_accuracy>Local Land And Property Gazetteer</spatial_accuracy><socrata_id>32</socrata_id><last_uploaded>2017-06-08T09:38:11</last_uploaded></row><row _id="33" _uuid="FB8F58BB-0643-4B6F-B379-3615AB10C771" _position="33" _address="https://opendata.camden.gov.uk/resource/_5rhh-fxna/33"><election_name>Parliamentary Election - 8 June 2017</election_name><polling_district_name>KA</polling_district_name><organisation>Kentish Town Health Centre</organisation><street>Bartholomew Road</street><postcode>NW5 2BX</postcode><ward_name>Cantelowes</ward_name><parliamentary_constituency_name>Holborn and St. Pancras</parliamentary_constituency_name><easting>529075</easting><northing>184696</northing><longitude>-0.139966</longitude><latitude>51.546415</latitude><location latitude="51.546415" longitude="-0.139966" needs_recoding="false"/><spatial_accuracy>Local Land And Property Gazetteer</spatial_accuracy><socrata_id>33</socrata_id><last_uploaded>2017-06-08T09:38:11</last_uploaded></row><row _id="34" _uuid="502C0BFB-D1E4-43B9-A554-BE0245CDBC1A" _position="34" _address="https://opendata.camden.gov.uk/resource/_5rhh-fxna/34"><election_name>Parliamentary Election - 8 June 2017</election_name><polling_district_name>KB</polling_district_name><organisation>The Irish Centre</organisation><street>Camden Square</street><postcode>NW1 9XA</postcode><ward_name>Cantelowes</ward_name><parliamentary_constituency_name>Holborn and St. Pancras</parliamentary_constituency_name><easting>529617</easting><northing>184415</northing><longitude>-0.132258</longitude><latitude>51.543765</latitude><location latitude="51.543765" longitude="-0.132258" needs_recoding="false"/><spatial_accuracy>Local Land And Property Gazetteer</spatial_accuracy><socrata_id>34</socrata_id><last_uploaded>2017-06-08T09:38:11</last_uploaded></row><row _id="35" _uuid="49B8FFA3-6C5E-477A-9422-0E89FF724D36" _position="35" _address="https://opendata.camden.gov.uk/resource/_5rhh-fxna/35"><election_name>Parliamentary Election - 8 June 2017</election_name><polling_district_name>KC</polling_district_name><organisation>Maiden Lane Community Centre</organisation><street>St Paul's Crescent</street><postcode>NW1 9XZ</postcode><ward_name>Cantelowes</ward_name><parliamentary_constituency_name>Holborn and St. Pancras</parliamentary_constituency_name><easting>529860</easting><northing>184152</northing><longitude>-0.128853</longitude><latitude>51.541346</latitude><location latitude="51.541346" longitude="-0.128853" needs_recoding="false"/><spatial_accuracy>Local Land And Property Gazetteer</spatial_accuracy><socrata_id>35</socrata_id><last_uploaded>2017-06-08T09:38:11</last_uploaded></row><row _id="36" _uuid="BC40ABDC-1A10-446B-B7DF-47B4DE512813" _position="36" _address="https://opendata.camden.gov.uk/resource/_5rhh-fxna/36"><election_name>Parliamentary Election - 8 June 2017</election_name><polling_district_name>LA</polling_district_name><organisation>Maitland Park Gymnasium</organisation><street>Maitland Park Villas</street><postcode>NW3 2EH</postcode><ward_name>Haverstock</ward_name><parliamentary_constituency_name>Holborn and St. Pancras</parliamentary_constituency_name><easting>527835</easting><northing>184912</northing><longitude>-0.157761</longitude><latitude>51.548638</latitude><location latitude="51.548638" longitude="-0.157761" needs_recoding="false"/><spatial_accuracy>Local Land And Property Gazetteer</spatial_accuracy><socrata_id>36</socrata_id><last_uploaded>2017-06-08T09:38:11</last_uploaded></row><row _id="37" _uuid="56965536-E415-4A6C-8859-2D6DDD781741" _position="37" _address="https://opendata.camden.gov.uk/resource/_5rhh-fxna/37"><election_name>Parliamentary Election - 8 June 2017</election_name><polling_district_name>LB</polling_district_name><organisation>Rhyl Primary School</organisation><street>Rhyl Street</street><postcode>NW5 3HB</postcode><ward_name>Haverstock</ward_name><parliamentary_constituency_name>Holborn and St. Pancras</parliamentary_constituency_name><easting>528335</easting><northing>184803</northing><longitude>-0.150593</longitude><latitude>51.547545</latitude><location latitude="51.547545" longitude="-0.150593" needs_recoding="false"/><spatial_accuracy>Local Land And Property Gazetteer</spatial_accuracy><socrata_id>37</socrata_id><last_uploaded>2017-06-08T09:38:11</last_uploaded></row><row _id="38" _uuid="4E5AB3E2-2536-4654-A733-AED45DAF0F72" _position="38" _address="https://opendata.camden.gov.uk/resource/_5rhh-fxna/38"><election_name>Parliamentary Election - 8 June 2017</election_name><polling_district_name>LC</polling_district_name><organisation>St Saviours Church Hall</organisation><street>Eton Road</street><postcode>NW3 4SU</postcode><ward_name>Haverstock</ward_name><parliamentary_constituency_name>Holborn and St. Pancras</parliamentary_constituency_name><easting>527808</easting><northing>184489</northing><longitude>-0.158303</longitude><latitude>51.544843</latitude><location latitude="51.544843" longitude="-0.158303" needs_recoding="false"/><spatial_accuracy>Local Land And Property Gazetteer</spatial_accuracy><socrata_id>38</socrata_id><last_uploaded>2017-06-08T09:38:11</last_uploaded></row><row _id="39" _uuid="50E2212C-5533-45F9-9F38-F965BF42A807" _position="39" _address="https://opendata.camden.gov.uk/resource/_5rhh-fxna/39"><election_name>Parliamentary Election - 8 June 2017</election_name><polling_district_name>LD</polling_district_name><organisation>Salvation Army Centre</organisation><street>Haverstock Hill</street><postcode>NW3 2BL</postcode><ward_name>Haverstock</ward_name><parliamentary_constituency_name>Holborn and St. Pancras</parliamentary_constituency_name><easting>528192</easting><northing>184441</northing><longitude>-0.152786</longitude><latitude>51.544324</latitude><location latitude="51.544324" longitude="-0.152786" needs_recoding="false"/><spatial_accuracy>Local Land And Property Gazetteer</spatial_accuracy><socrata_id>39</socrata_id><last_uploaded>2017-06-08T09:38:11</last_uploaded></row><row _id="40" _uuid="246BEFC8-96B1-4183-8F4A-0716F5E70450" _position="40" _address="https://opendata.camden.gov.uk/resource/_5rhh-fxna/40"><election_name>Parliamentary Election - 8 June 2017</election_name><polling_district_name>MA</polling_district_name><organisation>Primrose Hill Community Centre</organisation><street>Hopkinson's Place</street><postcode>NW1 8TN</postcode><ward_name>Camden Town with Primrose Hill</ward_name><parliamentary_constituency_name>Holborn and St. Pancras</parliamentary_constituency_name><easting>528021</easting><northing>183970</northing><longitude>-0.155422</longitude><latitude>51.54013</latitude><location latitude="51.54013" longitude="-0.155422" needs_recoding="false"/><spatial_accuracy>Local Land And Property Gazetteer</spatial_accuracy><socrata_id>40</socrata_id><last_uploaded>2017-06-08T09:38:11</last_uploaded></row><row _id="41" _uuid="A1CA3A68-DAE3-47FD-B8D0-AD6508726272" _position="41" _address="https://opendata.camden.gov.uk/resource/_5rhh-fxna/41"><election_name>Parliamentary Election - 8 June 2017</election_name><polling_district_name>MB</polling_district_name><organisation>The Pirate Castle</organisation><street>Oval Road</street><postcode>NW1 7EA</postcode><ward_name>Camden Town with Primrose Hill</ward_name><parliamentary_constituency_name>Holborn and St. Pancras</parliamentary_constituency_name><easting>528498</easting><northing>184006</northing><longitude>-0.148535</longitude><latitude>51.540345</latitude><location latitude="51.540345" longitude="-0.148535" needs_recoding="false"/><spatial_accuracy>Local Land And Property Gazetteer</spatial_accuracy><socrata_id>41</socrata_id><last_uploaded>2017-06-08T09:38:11</last_uploaded></row><row _id="42" _uuid="C58C1EBD-4C84-4B68-B846-6771D01143B3" _position="42" _address="https://opendata.camden.gov.uk/resource/_5rhh-fxna/42"><election_name>Parliamentary Election - 8 June 2017</election_name><polling_district_name>MC</polling_district_name><organisation>Castlehaven Community Centre</organisation><street>Castlehaven Road</street><postcode>NW1 8RU</postcode><ward_name>Camden Town with Primrose Hill</ward_name><parliamentary_constituency_name>Holborn and St. Pancras</parliamentary_constituency_name><easting>528721</easting><northing>184283</northing><longitude>-0.14522</longitude><latitude>51.542784</latitude><location latitude="51.542784" longitude="-0.14522" needs_recoding="false"/><spatial_accuracy>Local Land And Property Gazetteer</spatial_accuracy><socrata_id>42</socrata_id><last_uploaded>2017-06-08T09:38:11</last_uploaded></row><row _id="43" _uuid="3CB945E0-AE0D-488E-9EE6-4519BC805F9C" _position="43" _address="https://opendata.camden.gov.uk/resource/_5rhh-fxna/43"><election_name>Parliamentary Election - 8 June 2017</election_name><polling_district_name>MD</polling_district_name><organisation>Choices</organisation><street>Carol Street</street><postcode>NW1 0HT</postcode><ward_name>Camden Town with Primrose Hill</ward_name><parliamentary_constituency_name>Holborn and St. Pancras</parliamentary_constituency_name><easting>529041</easting><northing>183859</northing><longitude>-0.140763</longitude><latitude>51.538901</latitude><location latitude="51.538901" longitude="-0.140763" needs_recoding="false"/><spatial_accuracy>Local Land And Property Gazetteer</spatial_accuracy><socrata_id>43</socrata_id><last_uploaded>2017-06-08T09:38:11</last_uploaded></row><row _id="44" _uuid="AAD9BB2B-1669-471D-A4D8-0E06F0ACF33E" _position="44" _address="https://opendata.camden.gov.uk/resource/_5rhh-fxna/44"><election_name>Parliamentary Election - 8 June 2017</election_name><polling_district_name>NA</polling_district_name><organisation>Christ Church C E Primary School</organisation><street>Redhill Street</street><postcode>NW1 4BD</postcode><ward_name>Regent's Park</ward_name><parliamentary_constituency_name>Holborn and St. Pancras</parliamentary_constituency_name><easting>528813</easting><northing>182950</northing><longitude>-0.144381</longitude><latitude>51.530784</latitude><location latitude="51.530784" longitude="-0.144381" needs_recoding="false"/><spatial_accuracy>Local Land And Property Gazetteer</spatial_accuracy><socrata_id>44</socrata_id><last_uploaded>2017-06-08T09:38:11</last_uploaded></row><row _id="45" _uuid="DE7CC012-EE00-4F2C-B373-6D9182EAF9D9" _position="45" _address="https://opendata.camden.gov.uk/resource/_5rhh-fxna/45"><election_name>Parliamentary Election - 8 June 2017</election_name><polling_district_name>NB</polling_district_name><organisation>Samuel Lithgow Youth Centre</organisation><street>Stanhope Street</street><postcode>NW1 3LD</postcode><ward_name>Regent's Park</ward_name><parliamentary_constituency_name>Holborn and St. Pancras</parliamentary_constituency_name><easting>529047</easting><northing>182522</northing><longitude>-0.141166</longitude><latitude>51.526884</latitude><location latitude="51.526884" longitude="-0.141166" needs_recoding="false"/><spatial_accuracy>Local Land And Property Gazetteer</spatial_accuracy><socrata_id>45</socrata_id><last_uploaded>2017-06-08T09:38:11</last_uploaded></row><row _id="46" _uuid="D4F1C48E-9B6B-46B4-8C49-7F41FAA9DC58" _position="46" _address="https://opendata.camden.gov.uk/resource/_5rhh-fxna/46"><election_name>Parliamentary Election - 8 June 2017</election_name><polling_district_name>NC</polling_district_name><organisation>Crowndale Centre District Housing Office (DHO) Reception Area</organisation><street>Eversholt Street</street><postcode>NW1 1BD</postcode><ward_name>Regent's Park</ward_name><parliamentary_constituency_name>Holborn and St. Pancras</parliamentary_constituency_name><easting>529261</easting><northing>183348</northing><longitude>-0.13778</longitude><latitude>51.534258</latitude><location latitude="51.534258" longitude="-0.13778" needs_recoding="false"/><spatial_accuracy>Local Land And Property Gazetteer</spatial_accuracy><socrata_id>46</socrata_id><last_uploaded>2017-06-08T09:38:11</last_uploaded></row><row _id="47" _uuid="D5466D67-7778-4098-9FC4-C2A481FDD014" _position="47" _address="https://opendata.camden.gov.uk/resource/_5rhh-fxna/47"><election_name>Parliamentary Election - 8 June 2017</election_name><polling_district_name>OA</polling_district_name><organisation>Agar Grove TA Lulworth Meeting Room</organisation><street>Wrotham Road</street><postcode>NW1 9SS</postcode><ward_name>St Pancras and Somers Town</ward_name><parliamentary_constituency_name>Holborn and St. Pancras</parliamentary_constituency_name><easting>529554</easting><northing>184206</northing><longitude>-0.133243</longitude><latitude>51.541902</latitude><location latitude="51.541902" longitude="-0.133243" needs_recoding="false"/><spatial_accuracy>Local Land And Property Gazetteer</spatial_accuracy><socrata_id>47</socrata_id><last_uploaded>2017-06-08T09:38:11</last_uploaded></row><row _id="48" _uuid="1040DD76-591C-4197-AAA1-91A949080F94" _position="48" _address="https://opendata.camden.gov.uk/resource/_5rhh-fxna/48"><election_name>Parliamentary Election - 8 June 2017</election_name><polling_district_name>OB</polling_district_name><organisation>St Pancras Community Centre</organisation><street>Plender Street</street><postcode>NW1 0LB</postcode><ward_name>St Pancras and Somers Town</ward_name><parliamentary_constituency_name>Holborn and St. Pancras</parliamentary_constituency_name><easting>529288</easting><northing>183600</northing><longitude>-0.137299</longitude><latitude>51.536517</latitude><location latitude="51.536517" longitude="-0.137299" needs_recoding="false"/><spatial_accuracy>Local Land And Property Gazetteer</spatial_accuracy><socrata_id>48</socrata_id><last_uploaded>2017-06-08T09:38:11</last_uploaded></row><row _id="49" _uuid="017CB6A7-D6E8-4B54-867D-7C1074AE994C" _position="49" _address="https://opendata.camden.gov.uk/resource/_5rhh-fxna/49"><election_name>Parliamentary Election - 8 June 2017</election_name><polling_district_name>OC</polling_district_name><organisation>Godwin and Crowndale Community Hall</organisation><street>Crowndale Road</street><postcode>NW1 1NN</postcode><ward_name>St Pancras and Somers Town</ward_name><parliamentary_constituency_name>Holborn and St. Pancras</parliamentary_constituency_name><easting>529435</easting><northing>183416</northing><longitude>-0.135248</longitude><latitude>51.534829</latitude><location latitude="51.534829" longitude="-0.135248" needs_recoding="false"/><spatial_accuracy>Local Land And Property Gazetteer</spatial_accuracy><socrata_id>49</socrata_id><last_uploaded>2017-06-08T09:38:11</last_uploaded></row><row _id="50" _uuid="956860B7-7FB0-429F-AE30-21592CAB49DD" _position="50" _address="https://opendata.camden.gov.uk/resource/_5rhh-fxna/50"><election_name>Parliamentary Election - 8 June 2017</election_name><polling_district_name>OD</polling_district_name><organisation>Ossulston Tenants and Residents Association Hall</organisation><street>Ossulston Street</street><postcode>NW1 1EU</postcode><ward_name>St Pancras and Somers Town</ward_name><parliamentary_constituency_name>Holborn and St. Pancras</parliamentary_constituency_name><easting>529737</easting><northing>182979</northing><longitude>-0.131057</longitude><latitude>51.530833</latitude><location latitude="51.530833" longitude="-0.131057" needs_recoding="false"/><spatial_accuracy>Local Land And Property Gazetteer</spatial_accuracy><socrata_id>50</socrata_id><last_uploaded>2017-06-08T09:38:11</last_uploaded></row><row _id="51" _uuid="F80B2621-E56F-4419-AAE6-5AAFF495E1C8" _position="51" _address="https://opendata.camden.gov.uk/resource/_5rhh-fxna/51"><election_name>Parliamentary Election - 8 June 2017</election_name><polling_district_name>OE</polling_district_name><organisation>Saxon Court Office</organisation><street>Beaconsfield Street</street><postcode>N1C 4AR</postcode><ward_name>St Pancras and Somers Town</ward_name><parliamentary_constituency_name>Holborn and St. Pancras</parliamentary_constituency_name><easting>530202</easting><northing>183871</northing><longitude>-0.124028</longitude><latitude>51.538742</latitude><location latitude="51.538742" longitude="-0.124028" needs_recoding="false"/><spatial_accuracy>Local Land And Property Gazetteer</spatial_accuracy><socrata_id>51</socrata_id><last_uploaded>2017-06-08T09:38:11</last_uploaded></row><row _id="52" _uuid="A1D1C90A-472F-440D-854C-59AD34D7D966" _position="52" _address="https://opendata.camden.gov.uk/resource/_5rhh-fxna/52"><election_name>Parliamentary Election - 8 June 2017</election_name><polling_district_name>PA</polling_district_name><organisation>Camden Chinese Community Centre</organisation><street>Tavistock Place</street><postcode>WC1H 9SN</postcode><ward_name>King's Cross</ward_name><parliamentary_constituency_name>Holborn and St. Pancras</parliamentary_constituency_name><easting>530036</easting><northing>182379</northing><longitude>-0.12697</longitude><latitude>51.525372</latitude><location latitude="51.525372" longitude="-0.12697" needs_recoding="false"/><spatial_accuracy>Local Land And Property Gazetteer</spatial_accuracy><socrata_id>52</socrata_id><last_uploaded>2017-06-08T09:38:11</last_uploaded></row><row _id="53" _uuid="D6BE5FFD-3F85-4B72-9F25-C90296C35895" _position="53" _address="https://opendata.camden.gov.uk/resource/_5rhh-fxna/53"><election_name>Parliamentary Election - 8 June 2017</election_name><polling_district_name>PB</polling_district_name><organisation>Argyle Primary School Annex</organisation><street>Tonbridge Street</street><postcode>WC1H 9EG</postcode><ward_name>King's Cross</ward_name><parliamentary_constituency_name>Holborn and St. Pancras</parliamentary_constituency_name><easting>530229</easting><northing>182761</northing><longitude>-0.124049</longitude><latitude>51.528761</latitude><location latitude="51.528761" longitude="-0.124049" needs_recoding="false"/><spatial_accuracy>Local Land And Property Gazetteer</spatial_accuracy><socrata_id>53</socrata_id><last_uploaded>2017-06-08T09:38:11</last_uploaded></row><row _id="54" _uuid="63D21A09-9782-4F63-BF05-69174B6F9F5B" _position="54" _address="https://opendata.camden.gov.uk/resource/_5rhh-fxna/54"><election_name>Parliamentary Election - 8 June 2017</election_name><polling_district_name>PC</polling_district_name><organisation>Calthorpe Project</organisation><street>Gray's Inn Road</street><postcode>WC1X 8LH</postcode><ward_name>King's Cross</ward_name><parliamentary_constituency_name>Holborn and St. Pancras</parliamentary_constituency_name><easting>530678</easting><northing>182585</northing><longitude>-0.117645</longitude><latitude>51.527076</latitude><location latitude="51.527076" longitude="-0.117645" needs_recoding="false"/><spatial_accuracy>Local Land And Property Gazetteer</spatial_accuracy><socrata_id>54</socrata_id><last_uploaded>2017-06-08T09:38:11</last_uploaded></row><row _id="55" _uuid="B421B238-D136-4691-B18D-09E6F0116479" _position="55" _address="https://opendata.camden.gov.uk/resource/_5rhh-fxna/55"><election_name>Parliamentary Election - 8 June 2017</election_name><polling_district_name>QA</polling_district_name><organisation>Ramsay Hall</organisation><street>Maple Street</street><postcode>W1T 5HB</postcode><ward_name>Bloomsbury</ward_name><parliamentary_constituency_name>Holborn and St. Pancras</parliamentary_constituency_name><easting>529238</easting><northing>182046</northing><longitude>-0.138589</longitude><latitude>51.522563</latitude><location latitude="51.522563" longitude="-0.138589" needs_recoding="false"/><spatial_accuracy>Local Land And Property Gazetteer</spatial_accuracy><socrata_id>55</socrata_id><last_uploaded>2017-06-08T09:38:11</last_uploaded></row><row _id="56" _uuid="5AD36C11-315E-47A8-84A8-35E79A219D27" _position="56" _address="https://opendata.camden.gov.uk/resource/_5rhh-fxna/56"><election_name>Parliamentary Election - 8 June 2017</election_name><polling_district_name>QB</polling_district_name><organisation>The Drill Hall Theatre</organisation><street>Chenies Street</street><postcode>WC1E 7EX</postcode><ward_name>Bloomsbury</ward_name><parliamentary_constituency_name>Holborn and St. Pancras</parliamentary_constituency_name><easting>529659</easting><northing>181847</northing><longitude>-0.132597</longitude><latitude>51.520678</latitude><location latitude="51.520678" longitude="-0.132597" needs_recoding="false"/><spatial_accuracy>Local Land And Property Gazetteer</spatial_accuracy><socrata_id>56</socrata_id><last_uploaded>2017-06-08T09:38:11</last_uploaded></row><row _id="57" _uuid="D6B72961-182C-45A9-97C4-AB0C1F2AAB70" _position="57" _address="https://opendata.camden.gov.uk/resource/_5rhh-fxna/57"><election_name>Parliamentary Election - 8 June 2017</election_name><polling_district_name>QC</polling_district_name><organisation>Marchmont Street Community Centre</organisation><street>Marchmont Street</street><postcode>WC1N 1AB</postcode><ward_name>Bloomsbury</ward_name><parliamentary_constituency_name>Holborn and St. Pancras</parliamentary_constituency_name><easting>530161</easting><northing>182379</northing><longitude>-0.12517</longitude><latitude>51.525344</latitude><location latitude="51.525344" longitude="-0.12517" needs_recoding="false"/><spatial_accuracy>Local Land And Property Gazetteer</spatial_accuracy><socrata_id>57</socrata_id><last_uploaded>2017-06-08T09:38:11</last_uploaded></row><row _id="58" _uuid="2FC3EBCE-F3BB-4CF4-822C-314999594A27" _position="58" _address="https://opendata.camden.gov.uk/resource/_5rhh-fxna/58"><election_name>Parliamentary Election - 8 June 2017</election_name><polling_district_name>RA</polling_district_name><organisation>Dragon Hall</organisation><street>Stukeley Street</street><postcode>WC2B 5LL</postcode><ward_name>Holborn and Covent Garden</ward_name><parliamentary_constituency_name>Holborn and St. Pancras</parliamentary_constituency_name><easting>530356</easting><northing>181415</northing><longitude>-0.122717</longitude><latitude>51.516636</latitude><location latitude="51.516636" longitude="-0.122717" needs_recoding="false"/><spatial_accuracy>Local Land And Property Gazetteer</spatial_accuracy><socrata_id>58</socrata_id><last_uploaded>2017-06-08T09:38:11</last_uploaded></row><row _id="59" _uuid="6D0BCAF8-5B6A-48AE-B14E-834B45030010" _position="59" _address="https://opendata.camden.gov.uk/resource/_5rhh-fxna/59"><election_name>Parliamentary Election - 8 June 2017</election_name><polling_district_name>RB</polling_district_name><organisation>St George The Martyr Church</organisation><street>Queen Square</street><postcode>WC1N 3AH</postcode><ward_name>Holborn and Covent Garden</ward_name><parliamentary_constituency_name>Holborn and St. Pancras</parliamentary_constituency_name><easting>530364</easting><northing>181896</northing><longitude>-0.122424</longitude><latitude>51.520956</latitude><location latitude="51.520956" longitude="-0.122424" needs_recoding="false"/><spatial_accuracy>Local Land And Property Gazetteer</spatial_accuracy><socrata_id>59</socrata_id><last_uploaded>2017-06-08T09:38:11</last_uploaded></row><row _id="60" _uuid="69C6C5D0-111B-420F-B229-536487C5721D" _position="60" _address="https://opendata.camden.gov.uk/resource/_5rhh-fxna/60"><election_name>Parliamentary Election - 8 June 2017</election_name><polling_district_name>RC</polling_district_name><organisation>St. Alban's Centre</organisation><street>Leigh Place</street><postcode>EC1N 7AB</postcode><ward_name>Holborn and Covent Garden</ward_name><parliamentary_constituency_name>Holborn and St. Pancras</parliamentary_constituency_name><easting>531199</easting><northing>181793</northing><longitude>-0.110434</longitude><latitude>51.519838</latitude><location latitude="51.519838" longitude="-0.110434" needs_recoding="false"/><spatial_accuracy>Local Land And Property Gazetteer</spatial_accuracy><socrata_id>60</socrata_id><last_uploaded>2017-06-08T09:38:11</last_uploaded></row></row></response>