<response><row><row _id="181" _uuid="AAF14A89-6D68-49CC-9A07-5A94B4C72629" _position="181" _address="https://opendata.camden.gov.uk/resource/_5rhh-fxna/181"><election_name>Local Council Elections - 3 May 2018</election_name><polling_district_name>EB</polling_district_name><organisation>Lymington Road Residents Association Hall</organisation><street>Dresden Close</street><postcode>NW6 1XP</postcode><ward_name>West Hampstead</ward_name><parliamentary_constituency_name>Hampstead and Kilburn</parliamentary_constituency_name><easting>525982</easting><northing>185031</northing><longitude>-0.18439</longitude><latitude>51.550116</latitude><location human_address="{&quot;address&quot;:&quot;&quot;,&quot;city&quot;:&quot;&quot;,&quot;state&quot;:&quot;&quot;,&quot;zip&quot;:&quot;&quot;}" latitude="51.550116" longitude="-0.18439" needs_recoding="false"/><spatial_accuracy>Local Land And Property Gazetteer</spatial_accuracy><socrata_id>14</socrata_id><last_uploaded>2018-04-04T11:48:19</last_uploaded></row><row _id="182" _uuid="6670BF25-F88A-49FD-B3B7-74B0A9499CC3" _position="182" _address="https://opendata.camden.gov.uk/resource/_5rhh-fxna/182"><election_name>Local Council Elections - 3 May 2018</election_name><polling_district_name>MD</polling_district_name><organisation>Choices</organisation><street>Carol Street</street><postcode>NW1 0HT</postcode><ward_name>Camden Town with Primrose Hill</ward_name><parliamentary_constituency_name>Holborn and St. Pancras</parliamentary_constituency_name><easting>529041</easting><northing>183859</northing><longitude>-0.140725</longitude><latitude>51.538893</latitude><location human_address="{&quot;address&quot;:&quot;&quot;,&quot;city&quot;:&quot;&quot;,&quot;state&quot;:&quot;&quot;,&quot;zip&quot;:&quot;&quot;}" latitude="51.538893" longitude="-0.140725" needs_recoding="false"/><spatial_accuracy>Local Land And Property Gazetteer</spatial_accuracy><socrata_id>43</socrata_id><last_uploaded>2018-04-04T11:48:19</last_uploaded></row><row _id="183" _uuid="8F6CF0A7-8A26-469B-BC50-3CCB14B37ED7" _position="183" _address="https://opendata.camden.gov.uk/resource/_5rhh-fxna/183"><election_name>Local Council Elections - 3 May 2018</election_name><polling_district_name>JC</polling_district_name><organisation>Kentish Town Primary School</organisation><street>Islip Street</street><postcode>NW5 2TU</postcode><ward_name>Kentish Town</ward_name><parliamentary_constituency_name>Holborn and St. Pancras</parliamentary_constituency_name><easting>529113</easting><northing>185066</northing><longitude>-0.139245</longitude><latitude>51.549723</latitude><location human_address="{&quot;address&quot;:&quot;&quot;,&quot;city&quot;:&quot;&quot;,&quot;state&quot;:&quot;&quot;,&quot;zip&quot;:&quot;&quot;}" latitude="51.549723" longitude="-0.139245" needs_recoding="false"/><spatial_accuracy>Local Land And Property Gazetteer</spatial_accuracy><socrata_id>32</socrata_id><last_uploaded>2018-04-04T11:48:19</last_uploaded></row><row _id="184" _uuid="8090A637-3295-40E6-AA3E-9EB0A3C1CB9D" _position="184" _address="https://opendata.camden.gov.uk/resource/_5rhh-fxna/184"><election_name>Local Council Elections - 3 May 2018</election_name><polling_district_name>HA</polling_district_name><organisation>Belsize Synagogue</organisation><street>Belsize Square</street><postcode>NW3 4HX</postcode><ward_name>Belsize</ward_name><parliamentary_constituency_name>Hampstead and Kilburn</parliamentary_constituency_name><easting>526965</easting><northing>184750</northing><longitude>-0.170322</longitude><latitude>51.54737</latitude><location human_address="{&quot;address&quot;:&quot;&quot;,&quot;city&quot;:&quot;&quot;,&quot;state&quot;:&quot;&quot;,&quot;zip&quot;:&quot;&quot;}" latitude="51.54737" longitude="-0.170322" needs_recoding="false"/><spatial_accuracy>Local Land And Property Gazetteer</spatial_accuracy><socrata_id>24</socrata_id><last_uploaded>2018-04-04T11:48:19</last_uploaded></row><row _id="185" _uuid="ADC0EE7E-5E7B-4BEC-9B7E-69E17ACBA587" _position="185" _address="https://opendata.camden.gov.uk/resource/_5rhh-fxna/185"><election_name>Local Council Elections - 3 May 2018</election_name><polling_district_name>FA</polling_district_name><organisation>Kingsgate Community Centre</organisation><street>Kingsgate Road</street><postcode>NW6 2JH</postcode><ward_name>Kilburn</ward_name><parliamentary_constituency_name>Hampstead and Kilburn</parliamentary_constituency_name><easting>525177</easting><northing>184362</northing><longitude>-0.196232</longitude><latitude>51.544282</latitude><location human_address="{&quot;address&quot;:&quot;&quot;,&quot;city&quot;:&quot;&quot;,&quot;state&quot;:&quot;&quot;,&quot;zip&quot;:&quot;&quot;}" latitude="51.544282" longitude="-0.196232" needs_recoding="false"/><spatial_accuracy>Local Land And Property Gazetteer</spatial_accuracy><socrata_id>17</socrata_id><last_uploaded>2018-04-04T11:48:19</last_uploaded></row><row _id="186" _uuid="D68B4E1D-B69F-4A5A-B741-B50E4E80370D" _position="186" _address="https://opendata.camden.gov.uk/resource/_5rhh-fxna/186"><election_name>Local Council Elections - 3 May 2018</election_name><polling_district_name>CB</polling_district_name><organisation>St John at Hampstead Parish Church</organisation><street>Church Row</street><postcode>NW3 6UU</postcode><ward_name>Frognal and Fitzjohns</ward_name><parliamentary_constituency_name>Hampstead and Kilburn</parliamentary_constituency_name><easting>526198</easting><northing>185614</northing><longitude>-0.181068</longitude><latitude>51.555307</latitude><location human_address="{&quot;address&quot;:&quot;&quot;,&quot;city&quot;:&quot;&quot;,&quot;state&quot;:&quot;&quot;,&quot;zip&quot;:&quot;&quot;}" latitude="51.555307" longitude="-0.181068" needs_recoding="false"/><spatial_accuracy>Local Land And Property Gazetteer</spatial_accuracy><socrata_id>8</socrata_id><last_uploaded>2018-04-04T11:48:19</last_uploaded></row><row _id="187" _uuid="AE1F979B-A96B-4A9E-956A-047092909B3F" _position="187" _address="https://opendata.camden.gov.uk/resource/_5rhh-fxna/187"><election_name>Local Council Elections - 3 May 2018</election_name><polling_district_name>QC</polling_district_name><organisation>Marchmont Street Community Centre</organisation><street>Marchmont Street</street><postcode>WC1N 1AB</postcode><ward_name>Bloomsbury</ward_name><parliamentary_constituency_name>Holborn and St. Pancras</parliamentary_constituency_name><easting>530161</easting><northing>182379</northing><longitude>-0.125132</longitude><latitude>51.525335</latitude><location human_address="{&quot;address&quot;:&quot;&quot;,&quot;city&quot;:&quot;&quot;,&quot;state&quot;:&quot;&quot;,&quot;zip&quot;:&quot;&quot;}" latitude="51.525335" longitude="-0.125132" needs_recoding="false"/><spatial_accuracy>Local Land And Property Gazetteer</spatial_accuracy><socrata_id>57</socrata_id><last_uploaded>2018-04-04T11:48:19</last_uploaded></row><row _id="188" _uuid="CC6B9AB0-3967-4386-A727-A44277E240D6" _position="188" _address="https://opendata.camden.gov.uk/resource/_5rhh-fxna/188"><election_name>Local Council Elections - 3 May 2018</election_name><polling_district_name>OB</polling_district_name><organisation>St Pancras Community Centre</organisation><street>Plender Street</street><postcode>NW1 0LB</postcode><ward_name>St Pancras and Somers Town</ward_name><parliamentary_constituency_name>Holborn and St. Pancras</parliamentary_constituency_name><easting>529288</easting><northing>183600</northing><longitude>-0.137261</longitude><latitude>51.536509</latitude><location human_address="{&quot;address&quot;:&quot;&quot;,&quot;city&quot;:&quot;&quot;,&quot;state&quot;:&quot;&quot;,&quot;zip&quot;:&quot;&quot;}" latitude="51.536509" longitude="-0.137261" needs_recoding="false"/><spatial_accuracy>Local Land And Property Gazetteer</spatial_accuracy><socrata_id>48</socrata_id><last_uploaded>2018-04-04T11:48:19</last_uploaded></row><row _id="189" _uuid="E3110588-56E7-4B57-8563-1FA508A0CF3E" _position="189" _address="https://opendata.camden.gov.uk/resource/_5rhh-fxna/189"><election_name>Local Council Elections - 3 May 2018</election_name><polling_district_name>DC</polling_district_name><organisation>Emmanuel Church</organisation><street>Lyncroft Gardens</street><postcode>NW6 1JU</postcode><ward_name>Fortune Green</ward_name><parliamentary_constituency_name>Hampstead and Kilburn</parliamentary_constituency_name><easting>525413</easting><northing>185302</northing><longitude>-0.192496</longitude><latitude>51.552678</latitude><location human_address="{&quot;address&quot;:&quot;&quot;,&quot;city&quot;:&quot;&quot;,&quot;state&quot;:&quot;&quot;,&quot;zip&quot;:&quot;&quot;}" latitude="51.552678" longitude="-0.192496" needs_recoding="false"/><spatial_accuracy>Local Land And Property Gazetteer</spatial_accuracy><socrata_id>12</socrata_id><last_uploaded>2018-04-04T11:48:19</last_uploaded></row><row _id="190" _uuid="734939BD-9B5D-4549-A620-76985D4F0712" _position="190" _address="https://opendata.camden.gov.uk/resource/_5rhh-fxna/190"><election_name>Local Council Elections - 3 May 2018</election_name><polling_district_name>CC</polling_district_name><organisation>Holy Trinity Church Hall</organisation><street>Sumpter Close</street><postcode>NW3 5HR</postcode><ward_name>Frognal and Fitzjohns</ward_name><parliamentary_constituency_name>Hampstead and Kilburn</parliamentary_constituency_name><easting>526371</easting><northing>184697</northing><longitude>-0.178903</longitude><latitude>51.547027</latitude><location human_address="{&quot;address&quot;:&quot;&quot;,&quot;city&quot;:&quot;&quot;,&quot;state&quot;:&quot;&quot;,&quot;zip&quot;:&quot;&quot;}" latitude="51.547027" longitude="-0.178903" needs_recoding="false"/><spatial_accuracy>Local Land And Property Gazetteer</spatial_accuracy><socrata_id>9</socrata_id><last_uploaded>2018-04-04T11:48:19</last_uploaded></row><row _id="191" _uuid="EFF7BDD8-4C1C-4503-BAC3-17C3CAF0936A" _position="191" _address="https://opendata.camden.gov.uk/resource/_5rhh-fxna/191"><election_name>Local Council Elections - 3 May 2018</election_name><polling_district_name>RB</polling_district_name><organisation>St George The Martyr Church</organisation><street>Queen Square</street><postcode>WC1N 3AH</postcode><ward_name>Holborn and Covent Garden</ward_name><parliamentary_constituency_name>Holborn and St. Pancras</parliamentary_constituency_name><easting>530364</easting><northing>181896</northing><longitude>-0.122386</longitude><latitude>51.520948</latitude><location human_address="{&quot;address&quot;:&quot;&quot;,&quot;city&quot;:&quot;&quot;,&quot;state&quot;:&quot;&quot;,&quot;zip&quot;:&quot;&quot;}" latitude="51.520948" longitude="-0.122386" needs_recoding="false"/><spatial_accuracy>Local Land And Property Gazetteer</spatial_accuracy><socrata_id>59</socrata_id><last_uploaded>2018-04-04T11:48:19</last_uploaded></row><row _id="192" _uuid="9D8E31FC-F429-4FFE-887C-98ACCE000AF3" _position="192" _address="https://opendata.camden.gov.uk/resource/_5rhh-fxna/192"><election_name>Local Council Elections - 3 May 2018</election_name><polling_district_name>LB</polling_district_name><organisation>Rhyl Primary School</organisation><street>Rhyl Street</street><postcode>NW5 3HB</postcode><ward_name>Haverstock</ward_name><parliamentary_constituency_name>Holborn and St. Pancras</parliamentary_constituency_name><easting>528335</easting><northing>184803</northing><longitude>-0.150556</longitude><latitude>51.547537</latitude><location human_address="{&quot;address&quot;:&quot;&quot;,&quot;city&quot;:&quot;&quot;,&quot;state&quot;:&quot;&quot;,&quot;zip&quot;:&quot;&quot;}" latitude="51.547537" longitude="-0.150556" needs_recoding="false"/><spatial_accuracy>Local Land And Property Gazetteer</spatial_accuracy><socrata_id>37</socrata_id><last_uploaded>2018-04-04T11:48:19</last_uploaded></row><row _id="193" _uuid="E232539E-04F2-4F8D-BB3E-2CBFDB95E263" _position="193" _address="https://opendata.camden.gov.uk/resource/_5rhh-fxna/193"><election_name>Local Council Elections - 3 May 2018</election_name><polling_district_name>LC</polling_district_name><organisation>St Saviours Church Hall</organisation><street>Eton Road</street><postcode>NW3 4SU</postcode><ward_name>Haverstock</ward_name><parliamentary_constituency_name>Holborn and St. Pancras</parliamentary_constituency_name><easting>527808</easting><northing>184489</northing><longitude>-0.158266</longitude><latitude>51.544835</latitude><location human_address="{&quot;address&quot;:&quot;&quot;,&quot;city&quot;:&quot;&quot;,&quot;state&quot;:&quot;&quot;,&quot;zip&quot;:&quot;&quot;}" latitude="51.544835" longitude="-0.158266" needs_recoding="false"/><spatial_accuracy>Local Land And Property Gazetteer</spatial_accuracy><socrata_id>38</socrata_id><last_uploaded>2018-04-04T11:48:19</last_uploaded></row><row _id="194" _uuid="C5086DC9-50FF-403C-899E-FE52A0A1F25F" _position="194" _address="https://opendata.camden.gov.uk/resource/_5rhh-fxna/194"><election_name>Local Council Elections - 3 May 2018</election_name><polling_district_name>IB</polling_district_name><organisation>Kiln Place Tenants Association Hall</organisation><street>Kiln Place</street><postcode>NW5 4AP</postcode><ward_name>Gospel Oak</ward_name><parliamentary_constituency_name>Holborn and St. Pancras</parliamentary_constituency_name><easting>528276</easting><northing>185519</northing><longitude>-0.151145</longitude><latitude>51.553985</latitude><location human_address="{&quot;address&quot;:&quot;&quot;,&quot;city&quot;:&quot;&quot;,&quot;state&quot;:&quot;&quot;,&quot;zip&quot;:&quot;&quot;}" latitude="51.553985" longitude="-0.151145" needs_recoding="false"/><spatial_accuracy>Local Land And Property Gazetteer</spatial_accuracy><socrata_id>28</socrata_id><last_uploaded>2018-04-04T11:48:19</last_uploaded></row><row _id="195" _uuid="6DFBEE0E-FC6C-4135-81B1-CBF6F9C0838F" _position="195" _address="https://opendata.camden.gov.uk/resource/_5rhh-fxna/195"><election_name>Local Council Elections - 3 May 2018</election_name><polling_district_name>NC</polling_district_name><organisation>Crowndale Centre District Housing Office (DHO) Reception Area</organisation><street>Eversholt Street</street><postcode>NW1 1BD</postcode><ward_name>Regent's Park</ward_name><parliamentary_constituency_name>Holborn and St. Pancras</parliamentary_constituency_name><easting>529261</easting><northing>183348</northing><longitude>-0.137742</longitude><latitude>51.53425</latitude><location human_address="{&quot;address&quot;:&quot;&quot;,&quot;city&quot;:&quot;&quot;,&quot;state&quot;:&quot;&quot;,&quot;zip&quot;:&quot;&quot;}" latitude="51.53425" longitude="-0.137742" needs_recoding="false"/><spatial_accuracy>Local Land And Property Gazetteer</spatial_accuracy><socrata_id>46</socrata_id><last_uploaded>2018-04-04T11:48:19</last_uploaded></row><row _id="196" _uuid="572A4C22-0FBA-4656-A630-A58F2AA18A0B" _position="196" _address="https://opendata.camden.gov.uk/resource/_5rhh-fxna/196"><election_name>Local Council Elections - 3 May 2018</election_name><polling_district_name>DA</polling_district_name><organisation>Templar House Social Hall</organisation><street>Shoot-Up Hill</street><postcode>NW2 3TD</postcode><ward_name>Fortune Green</ward_name><parliamentary_constituency_name>Hampstead and Kilburn</parliamentary_constituency_name><easting>524583</easting><northing>184805</northing><longitude>-0.204637</longitude><latitude>51.548395</latitude><location human_address="{&quot;address&quot;:&quot;&quot;,&quot;city&quot;:&quot;&quot;,&quot;state&quot;:&quot;&quot;,&quot;zip&quot;:&quot;&quot;}" latitude="51.548395" longitude="-0.204637" needs_recoding="false"/><spatial_accuracy>Local Land And Property Gazetteer</spatial_accuracy><socrata_id>10</socrata_id><last_uploaded>2018-04-04T11:48:19</last_uploaded></row><row _id="197" _uuid="68417A46-D40C-4EDC-A690-EC744A1605B7" _position="197" _address="https://opendata.camden.gov.uk/resource/_5rhh-fxna/197"><election_name>Local Council Elections - 3 May 2018</election_name><polling_district_name>PB</polling_district_name><organisation>Main Hall, Camden Centre</organisation><street>Bidborough Street</street><postcode>WC1H 9AU</postcode><ward_name>King's Cross</ward_name><parliamentary_constituency_name>Holborn and St. Pancras</parliamentary_constituency_name><easting>530153</easting><northing>182806</northing><longitude>-0.125089</longitude><latitude>51.529175</latitude><location human_address="{&quot;address&quot;:&quot;&quot;,&quot;city&quot;:&quot;&quot;,&quot;state&quot;:&quot;&quot;,&quot;zip&quot;:&quot;&quot;}" latitude="51.529175" longitude="-0.125089" needs_recoding="false"/><spatial_accuracy>Local Land And Property Gazetteer</spatial_accuracy><socrata_id>53</socrata_id><last_uploaded>2018-04-04T11:48:19</last_uploaded></row><row _id="198" _uuid="7AE95291-FA79-4CE3-9062-CCEF20C63D84" _position="198" _address="https://opendata.camden.gov.uk/resource/_5rhh-fxna/198"><election_name>Local Council Elections - 3 May 2018</election_name><polling_district_name>FB</polling_district_name><organisation>Abbey Community Centre</organisation><street>Belsize Road</street><postcode>NW6 4DJ</postcode><ward_name>Kilburn</ward_name><parliamentary_constituency_name>Hampstead and Kilburn</parliamentary_constituency_name><easting>525714</easting><northing>183841</northing><longitude>-0.188678</longitude><latitude>51.539481</latitude><location human_address="{&quot;address&quot;:&quot;&quot;,&quot;city&quot;:&quot;&quot;,&quot;state&quot;:&quot;&quot;,&quot;zip&quot;:&quot;&quot;}" latitude="51.539481" longitude="-0.188678" needs_recoding="false"/><spatial_accuracy>Local Land And Property Gazetteer</spatial_accuracy><socrata_id>18</socrata_id><last_uploaded>2018-04-04T11:48:19</last_uploaded></row><row _id="199" _uuid="80BDA267-AF77-4011-AA04-C1335E17D90A" _position="199" _address="https://opendata.camden.gov.uk/resource/_5rhh-fxna/199"><election_name>Local Council Elections - 3 May 2018</election_name><polling_district_name>HC</polling_district_name><organisation>Bray Tenants Hall</organisation><street>Fellows Road</street><postcode>NW3 3JX</postcode><ward_name>Belsize</ward_name><parliamentary_constituency_name>Hampstead and Kilburn</parliamentary_constituency_name><easting>527247</easting><northing>184337</northing><longitude>-0.166406</longitude><latitude>51.543595</latitude><location human_address="{&quot;address&quot;:&quot;&quot;,&quot;city&quot;:&quot;&quot;,&quot;state&quot;:&quot;&quot;,&quot;zip&quot;:&quot;&quot;}" latitude="51.543595" longitude="-0.166406" needs_recoding="false"/><spatial_accuracy>Local Land And Property Gazetteer</spatial_accuracy><socrata_id>26</socrata_id><last_uploaded>2018-04-04T11:48:19</last_uploaded></row><row _id="200" _uuid="5DE333DE-CA63-4E1D-BFB2-0DE1E62516CA" _position="200" _address="https://opendata.camden.gov.uk/resource/_5rhh-fxna/200"><election_name>Local Council Elections - 3 May 2018</election_name><polling_district_name>DB</polling_district_name><organisation>Beckford Primary School</organisation><street>Dornfell Street</street><postcode>NW6 1QL</postcode><ward_name>Fortune Green</ward_name><parliamentary_constituency_name>Hampstead and Kilburn</parliamentary_constituency_name><easting>524934</easting><northing>185067</northing><longitude>-0.199484</longitude><latitude>51.550672</latitude><location human_address="{&quot;address&quot;:&quot;&quot;,&quot;city&quot;:&quot;&quot;,&quot;state&quot;:&quot;&quot;,&quot;zip&quot;:&quot;&quot;}" latitude="51.550672" longitude="-0.199484" needs_recoding="false"/><spatial_accuracy>Local Land And Property Gazetteer</spatial_accuracy><socrata_id>11</socrata_id><last_uploaded>2018-04-04T11:48:19</last_uploaded></row><row _id="201" _uuid="4E72FB0C-E3C3-450D-90E7-1B3B426901F9" _position="201" _address="https://opendata.camden.gov.uk/resource/_5rhh-fxna/201"><election_name>Local Council Elections - 3 May 2018</election_name><polling_district_name>JB</polling_district_name><organisation>Kentish Town Congregational Church</organisation><street>Kelly Street</street><postcode>NW1 8PH</postcode><ward_name>Kentish Town</ward_name><parliamentary_constituency_name>Holborn and St. Pancras</parliamentary_constituency_name><easting>528859</easting><northing>184651</northing><longitude>-0.143058</longitude><latitude>51.546052</latitude><location human_address="{&quot;address&quot;:&quot;&quot;,&quot;city&quot;:&quot;&quot;,&quot;state&quot;:&quot;&quot;,&quot;zip&quot;:&quot;&quot;}" latitude="51.546052" longitude="-0.143058" needs_recoding="false"/><spatial_accuracy>Local Land And Property Gazetteer</spatial_accuracy><socrata_id>31</socrata_id><last_uploaded>2018-04-04T11:48:19</last_uploaded></row><row _id="202" _uuid="EED50FFD-90B6-46E7-8AA7-9AD2CD385854" _position="202" _address="https://opendata.camden.gov.uk/resource/_5rhh-fxna/202"><election_name>Local Council Elections - 3 May 2018</election_name><polling_district_name>OE</polling_district_name><organisation>Saxon Court Office</organisation><street>Beaconsfield Street</street><postcode>N1C 4AR</postcode><ward_name>St Pancras and Somers Town</ward_name><parliamentary_constituency_name>Holborn and St. Pancras</parliamentary_constituency_name><easting>530202</easting><northing>183871</northing><longitude>-0.12399</longitude><latitude>51.538734</latitude><location human_address="{&quot;address&quot;:&quot;&quot;,&quot;city&quot;:&quot;&quot;,&quot;state&quot;:&quot;&quot;,&quot;zip&quot;:&quot;&quot;}" latitude="51.538734" longitude="-0.12399" needs_recoding="false"/><spatial_accuracy>Local Land And Property Gazetteer</spatial_accuracy><socrata_id>51</socrata_id><last_uploaded>2018-04-04T11:48:19</last_uploaded></row><row _id="203" _uuid="2C3B6DCA-C686-4C62-A77F-9212B5843993" _position="203" _address="https://opendata.camden.gov.uk/resource/_5rhh-fxna/203"><election_name>Local Council Elections - 3 May 2018</election_name><polling_district_name>AA</polling_district_name><organisation>Burgh House</organisation><street>New End Square</street><postcode>NW3 1LT</postcode><ward_name>Hampstead Town</ward_name><parliamentary_constituency_name>Hampstead and Kilburn</parliamentary_constituency_name><easting>526606</easting><northing>185943</northing><longitude>-0.175067</longitude><latitude>51.558172</latitude><location human_address="{&quot;address&quot;:&quot;&quot;,&quot;city&quot;:&quot;&quot;,&quot;state&quot;:&quot;&quot;,&quot;zip&quot;:&quot;&quot;}" latitude="51.558172" longitude="-0.175067" needs_recoding="false"/><spatial_accuracy>Local Land And Property Gazetteer</spatial_accuracy><socrata_id>1</socrata_id><last_uploaded>2018-04-04T11:48:16</last_uploaded></row><row _id="204" _uuid="9D2F8FE8-603F-4CC0-92FF-298B85DA57C2" _position="204" _address="https://opendata.camden.gov.uk/resource/_5rhh-fxna/204"><election_name>Local Council Elections - 3 May 2018</election_name><polling_district_name>QB</polling_district_name><organisation>The Drill Hall Theatre</organisation><street>Chenies Street</street><postcode>WC1E 7EX</postcode><ward_name>Bloomsbury</ward_name><parliamentary_constituency_name>Holborn and St. Pancras</parliamentary_constituency_name><easting>529659</easting><northing>181847</northing><longitude>-0.13256</longitude><latitude>51.52067</latitude><location human_address="{&quot;address&quot;:&quot;&quot;,&quot;city&quot;:&quot;&quot;,&quot;state&quot;:&quot;&quot;,&quot;zip&quot;:&quot;&quot;}" latitude="51.52067" longitude="-0.13256" needs_recoding="false"/><spatial_accuracy>Local Land And Property Gazetteer</spatial_accuracy><socrata_id>56</socrata_id><last_uploaded>2018-04-04T11:48:19</last_uploaded></row><row _id="205" _uuid="DD99E483-60F4-4D0A-9A6D-4A441B68C53A" _position="205" _address="https://opendata.camden.gov.uk/resource/_5rhh-fxna/205"><election_name>Local Council Elections - 3 May 2018</election_name><polling_district_name>RA</polling_district_name><organisation>Dragon Hall Community Centre</organisation><street>Stukeley Street</street><postcode>WC2B 5LL</postcode><ward_name>Holborn and Covent Garden</ward_name><parliamentary_constituency_name>Holborn and St. Pancras</parliamentary_constituency_name><easting>530357</easting><northing>181415</northing><longitude>-0.122665</longitude><latitude>51.516627</latitude><location human_address="{&quot;address&quot;:&quot;&quot;,&quot;city&quot;:&quot;&quot;,&quot;state&quot;:&quot;&quot;,&quot;zip&quot;:&quot;&quot;}" latitude="51.516627" longitude="-0.122665" needs_recoding="false"/><spatial_accuracy>Local Land And Property Gazetteer</spatial_accuracy><socrata_id>58</socrata_id><last_uploaded>2018-04-04T11:48:19</last_uploaded></row><row _id="206" _uuid="C553F156-DCE0-4164-B1E7-A3203DDD94A5" _position="206" _address="https://opendata.camden.gov.uk/resource/_5rhh-fxna/206"><election_name>Local Council Elections - 3 May 2018</election_name><polling_district_name>CA</polling_district_name><organisation>St Luke's Church of England School</organisation><street>Kidderpore Avenue</street><postcode>NW3 7SU</postcode><ward_name>Frognal and Fitzjohns</ward_name><parliamentary_constituency_name>Hampstead and Kilburn</parliamentary_constituency_name><easting>525269</easting><northing>185902</northing><longitude>-0.194358</longitude><latitude>51.558102</latitude><location human_address="{&quot;address&quot;:&quot;&quot;,&quot;city&quot;:&quot;&quot;,&quot;state&quot;:&quot;&quot;,&quot;zip&quot;:&quot;&quot;}" latitude="51.558102" longitude="-0.194358" needs_recoding="false"/><spatial_accuracy>Local Land And Property Gazetteer</spatial_accuracy><socrata_id>7</socrata_id><last_uploaded>2018-04-04T11:48:19</last_uploaded></row><row _id="207" _uuid="5A43C93B-5AAE-4280-9FB2-E4AD73DA796E" _position="207" _address="https://opendata.camden.gov.uk/resource/_5rhh-fxna/207"><election_name>Local Council Elections - 3 May 2018</election_name><polling_district_name>FD</polling_district_name><organisation>Mortimer Crescent Tenants and Residents Association Hall</organisation><street>Mortimer Crescent</street><postcode>NW6 5UR</postcode><ward_name>Kilburn</ward_name><parliamentary_constituency_name>Hampstead and Kilburn</parliamentary_constituency_name><easting>525733</easting><northing>183519</northing><longitude>-0.18852</longitude><latitude>51.536583</latitude><location human_address="{&quot;address&quot;:&quot;&quot;,&quot;city&quot;:&quot;&quot;,&quot;state&quot;:&quot;&quot;,&quot;zip&quot;:&quot;&quot;}" latitude="51.536583" longitude="-0.18852" needs_recoding="false"/><spatial_accuracy>Local Land And Property Gazetteer</spatial_accuracy><socrata_id>20</socrata_id><last_uploaded>2018-04-04T11:48:19</last_uploaded></row><row _id="208" _uuid="7816CC94-5416-4EFB-AB73-1BFF78B8601C" _position="208" _address="https://opendata.camden.gov.uk/resource/_5rhh-fxna/208"><election_name>Local Council Elections - 3 May 2018</election_name><polling_district_name>MB</polling_district_name><organisation>The Pirate Castle</organisation><street>Oval Road</street><postcode>NW1 7EA</postcode><ward_name>Camden Town with Primrose Hill</ward_name><parliamentary_constituency_name>Holborn and St. Pancras</parliamentary_constituency_name><easting>528498</easting><northing>184006</northing><longitude>-0.148497</longitude><latitude>51.540338</latitude><location human_address="{&quot;address&quot;:&quot;&quot;,&quot;city&quot;:&quot;&quot;,&quot;state&quot;:&quot;&quot;,&quot;zip&quot;:&quot;&quot;}" latitude="51.540338" longitude="-0.148497" needs_recoding="false"/><spatial_accuracy>Local Land And Property Gazetteer</spatial_accuracy><socrata_id>41</socrata_id><last_uploaded>2018-04-04T11:48:19</last_uploaded></row><row _id="209" _uuid="98B265C3-A033-4C6C-A1EF-82F14514D5BE" _position="209" _address="https://opendata.camden.gov.uk/resource/_5rhh-fxna/209"><election_name>Local Council Elections - 3 May 2018</election_name><polling_district_name>GB</polling_district_name><organisation>Crossfield Day Centre</organisation><street>Fairhazel Gardens</street><postcode>NW6 3SG</postcode><ward_name>Swiss Cottage</ward_name><parliamentary_constituency_name>Hampstead and Kilburn</parliamentary_constituency_name><easting>526259</easting><northing>184156</northing><longitude>-0.180711</longitude><latitude>51.54219</latitude><location human_address="{&quot;address&quot;:&quot;&quot;,&quot;city&quot;:&quot;&quot;,&quot;state&quot;:&quot;&quot;,&quot;zip&quot;:&quot;&quot;}" latitude="51.54219" longitude="-0.180711" needs_recoding="false"/><spatial_accuracy>Local Land And Property Gazetteer</spatial_accuracy><socrata_id>22</socrata_id><last_uploaded>2018-04-04T11:48:19</last_uploaded></row><row _id="210" _uuid="8754AD53-41F3-4675-9BDB-15BDCE0594AE" _position="210" _address="https://opendata.camden.gov.uk/resource/_5rhh-fxna/210"><election_name>Local Council Elections - 3 May 2018</election_name><polling_district_name>AB</polling_district_name><organisation>Fitzjohn's Primary School</organisation><street>Fitzjohn's Avenue</street><postcode>NW3 6NP</postcode><ward_name>Hampstead Town</ward_name><parliamentary_constituency_name>Hampstead and Kilburn</parliamentary_constituency_name><easting>526614</easting><northing>185439</northing><longitude>-0.175133</longitude><latitude>51.553641</latitude><location human_address="{&quot;address&quot;:&quot;&quot;,&quot;city&quot;:&quot;&quot;,&quot;state&quot;:&quot;&quot;,&quot;zip&quot;:&quot;&quot;}" latitude="51.553641" longitude="-0.175133" needs_recoding="false"/><spatial_accuracy>Local Land And Property Gazetteer</spatial_accuracy><socrata_id>2</socrata_id><last_uploaded>2018-04-04T11:48:19</last_uploaded></row><row _id="211" _uuid="2A38A396-0367-4DB7-9C3F-792DB0566278" _position="211" _address="https://opendata.camden.gov.uk/resource/_5rhh-fxna/211"><election_name>Local Council Elections - 3 May 2018</election_name><polling_district_name>OA</polling_district_name><organisation>Agar Grove TA Lulworth Meeting Room</organisation><street>Wrotham Road</street><postcode>NW1 9SS</postcode><ward_name>St Pancras and Somers Town</ward_name><parliamentary_constituency_name>Holborn and St. Pancras</parliamentary_constituency_name><easting>529554</easting><northing>184206</northing><longitude>-0.133205</longitude><latitude>51.541894</latitude><location human_address="{&quot;address&quot;:&quot;&quot;,&quot;city&quot;:&quot;&quot;,&quot;state&quot;:&quot;&quot;,&quot;zip&quot;:&quot;&quot;}" latitude="51.541894" longitude="-0.133205" needs_recoding="false"/><spatial_accuracy>Local Land And Property Gazetteer</spatial_accuracy><socrata_id>47</socrata_id><last_uploaded>2018-04-04T11:48:19</last_uploaded></row><row _id="212" _uuid="2B0F104C-AD7F-43A6-9F34-496F753D305B" _position="212" _address="https://opendata.camden.gov.uk/resource/_5rhh-fxna/212"><election_name>Local Council Elections - 3 May 2018</election_name><polling_district_name>HB</polling_district_name><organisation>Belsize Branch Library</organisation><street>Antrim Road</street><postcode>NW3 4XN</postcode><ward_name>Belsize</ward_name><parliamentary_constituency_name>Hampstead and Kilburn</parliamentary_constituency_name><easting>527523</easting><northing>184823</northing><longitude>-0.162252</longitude><latitude>51.547901</latitude><location human_address="{&quot;address&quot;:&quot;&quot;,&quot;city&quot;:&quot;&quot;,&quot;state&quot;:&quot;&quot;,&quot;zip&quot;:&quot;&quot;}" latitude="51.547901" longitude="-0.162252" needs_recoding="false"/><spatial_accuracy>Local Land And Property Gazetteer</spatial_accuracy><socrata_id>25</socrata_id><last_uploaded>2018-04-04T11:48:19</last_uploaded></row><row _id="213" _uuid="D1D0E5AC-9822-4683-8F45-954648E10036" _position="213" _address="https://opendata.camden.gov.uk/resource/_5rhh-fxna/213"><election_name>Local Council Elections - 3 May 2018</election_name><polling_district_name>QA</polling_district_name><organisation>Ramsay Hall</organisation><street>Maple Street</street><postcode>W1T 5HB</postcode><ward_name>Bloomsbury</ward_name><parliamentary_constituency_name>Holborn and St. Pancras</parliamentary_constituency_name><easting>529238</easting><northing>182046</northing><longitude>-0.138551</longitude><latitude>51.522554</latitude><location human_address="{&quot;address&quot;:&quot;&quot;,&quot;city&quot;:&quot;&quot;,&quot;state&quot;:&quot;&quot;,&quot;zip&quot;:&quot;&quot;}" latitude="51.522554" longitude="-0.138551" needs_recoding="false"/><spatial_accuracy>Local Land And Property Gazetteer</spatial_accuracy><socrata_id>55</socrata_id><last_uploaded>2018-04-04T11:48:19</last_uploaded></row><row _id="214" _uuid="F6245357-9F21-4454-8724-E949D10409D8" _position="214" _address="https://opendata.camden.gov.uk/resource/_5rhh-fxna/214"><election_name>Local Council Elections - 3 May 2018</election_name><polling_district_name>EA</polling_district_name><organisation>West Hampstead Branch Library</organisation><street>Dennington Park Road</street><postcode>NW6 1AU</postcode><ward_name>West Hampstead</ward_name><parliamentary_constituency_name>Hampstead and Kilburn</parliamentary_constituency_name><easting>525481</easting><northing>185041</northing><longitude>-0.191609</longitude><latitude>51.550317</latitude><location human_address="{&quot;address&quot;:&quot;&quot;,&quot;city&quot;:&quot;&quot;,&quot;state&quot;:&quot;&quot;,&quot;zip&quot;:&quot;&quot;}" latitude="51.550317" longitude="-0.191609" needs_recoding="false"/><spatial_accuracy>Local Land And Property Gazetteer</spatial_accuracy><socrata_id>13</socrata_id><last_uploaded>2018-04-04T11:48:19</last_uploaded></row><row _id="215" _uuid="5EF38119-CC17-47CF-8F1F-2ED02605954F" _position="215" _address="https://opendata.camden.gov.uk/resource/_5rhh-fxna/215"><election_name>Local Council Elections - 3 May 2018</election_name><polling_district_name>KB</polling_district_name><organisation>The Irish Centre</organisation><street>Camden Square</street><postcode>NW1 9XA</postcode><ward_name>Cantelowes</ward_name><parliamentary_constituency_name>Holborn and St. Pancras</parliamentary_constituency_name><easting>529617</easting><northing>184415</northing><longitude>-0.13222</longitude><latitude>51.543758</latitude><location human_address="{&quot;address&quot;:&quot;&quot;,&quot;city&quot;:&quot;&quot;,&quot;state&quot;:&quot;&quot;,&quot;zip&quot;:&quot;&quot;}" latitude="51.543758" longitude="-0.13222" needs_recoding="false"/><spatial_accuracy>Local Land And Property Gazetteer</spatial_accuracy><socrata_id>34</socrata_id><last_uploaded>2018-04-04T11:48:19</last_uploaded></row><row _id="216" _uuid="29E32C82-0B9E-41B0-8AAA-62C82D54DD29" _position="216" _address="https://opendata.camden.gov.uk/resource/_5rhh-fxna/216"><election_name>Local Council Elections - 3 May 2018</election_name><polling_district_name>MC</polling_district_name><organisation>Castlehaven Community Centre</organisation><street>Castlehaven Road</street><postcode>NW1 8RU</postcode><ward_name>Camden Town with Primrose Hill</ward_name><parliamentary_constituency_name>Holborn and St. Pancras</parliamentary_constituency_name><easting>528721</easting><northing>184283</northing><longitude>-0.145182</longitude><latitude>51.542776</latitude><location human_address="{&quot;address&quot;:&quot;&quot;,&quot;city&quot;:&quot;&quot;,&quot;state&quot;:&quot;&quot;,&quot;zip&quot;:&quot;&quot;}" latitude="51.542776" longitude="-0.145182" needs_recoding="false"/><spatial_accuracy>Local Land And Property Gazetteer</spatial_accuracy><socrata_id>42</socrata_id><last_uploaded>2018-04-04T11:48:19</last_uploaded></row><row _id="217" _uuid="9AF2FC20-0C22-42CA-A06C-C216FDCE9F77" _position="217" _address="https://opendata.camden.gov.uk/resource/_5rhh-fxna/217"><election_name>Local Council Elections - 3 May 2018</election_name><polling_district_name>BC</polling_district_name><organisation>Highgate Library Civic and Cultural Centre</organisation><street>Chester Road</street><postcode>N19 5DH</postcode><ward_name>Highgate</ward_name><parliamentary_constituency_name>Holborn and St. Pancras</parliamentary_constituency_name><easting>528739</easting><northing>186620</northing><longitude>-0.144068</longitude><latitude>51.563774</latitude><location human_address="{&quot;address&quot;:&quot;&quot;,&quot;city&quot;:&quot;&quot;,&quot;state&quot;:&quot;&quot;,&quot;zip&quot;:&quot;&quot;}" latitude="51.563774" longitude="-0.144068" needs_recoding="false"/><spatial_accuracy>Local Land And Property Gazetteer</spatial_accuracy><socrata_id>6</socrata_id><last_uploaded>2018-04-04T11:48:19</last_uploaded></row><row _id="218" _uuid="FF7B0F36-82A5-4618-AF58-C4E7F162A8BE" _position="218" _address="https://opendata.camden.gov.uk/resource/_5rhh-fxna/218"><election_name>Local Council Elections - 3 May 2018</election_name><polling_district_name>AC</polling_district_name><organisation>Heath Branch Library</organisation><street>Keats Grove</street><postcode>NW3 2RR</postcode><ward_name>Hampstead Town</ward_name><parliamentary_constituency_name>Hampstead and Kilburn</parliamentary_constituency_name><easting>527089</easting><northing>185656</northing><longitude>-0.168207</longitude><latitude>51.555485</latitude><location human_address="{&quot;address&quot;:&quot;&quot;,&quot;city&quot;:&quot;&quot;,&quot;state&quot;:&quot;&quot;,&quot;zip&quot;:&quot;&quot;}" latitude="51.555485" longitude="-0.168207" needs_recoding="false"/><spatial_accuracy>Local Land And Property Gazetteer</spatial_accuracy><socrata_id>3</socrata_id><last_uploaded>2018-04-04T11:48:19</last_uploaded></row><row _id="219" _uuid="D6D0315C-3F9E-41D8-9EF4-31E771F16820" _position="219" _address="https://opendata.camden.gov.uk/resource/_5rhh-fxna/219"><election_name>Local Council Elections - 3 May 2018</election_name><polling_district_name>IA</polling_district_name><organisation>Gospel Oak Methodist Church</organisation><street>Agincourt Road</street><postcode>NW3 2NT</postcode><ward_name>Gospel Oak</ward_name><parliamentary_constituency_name>Holborn and St. Pancras</parliamentary_constituency_name><easting>527746</easting><northing>185495</northing><longitude>-0.158794</longitude><latitude>51.55389</latitude><location human_address="{&quot;address&quot;:&quot;&quot;,&quot;city&quot;:&quot;&quot;,&quot;state&quot;:&quot;&quot;,&quot;zip&quot;:&quot;&quot;}" latitude="51.55389" longitude="-0.158794" needs_recoding="false"/><spatial_accuracy>Local Land And Property Gazetteer</spatial_accuracy><socrata_id>27</socrata_id><last_uploaded>2018-04-04T11:48:19</last_uploaded></row><row _id="220" _uuid="B04A3459-740E-48DF-9F6A-D6A3FD2AE4FC" _position="220" _address="https://opendata.camden.gov.uk/resource/_5rhh-fxna/220"><election_name>Local Council Elections - 3 May 2018</election_name><polling_district_name>PA</polling_district_name><organisation>Camden Chinese Community Centre</organisation><street>Tavistock Place</street><postcode>WC1H 9SN</postcode><ward_name>King's Cross</ward_name><parliamentary_constituency_name>Holborn and St. Pancras</parliamentary_constituency_name><easting>530036</easting><northing>182379</northing><longitude>-0.126933</longitude><latitude>51.525364</latitude><location human_address="{&quot;address&quot;:&quot;&quot;,&quot;city&quot;:&quot;&quot;,&quot;state&quot;:&quot;&quot;,&quot;zip&quot;:&quot;&quot;}" latitude="51.525364" longitude="-0.126933" needs_recoding="false"/><spatial_accuracy>Local Land And Property Gazetteer</spatial_accuracy><socrata_id>52</socrata_id><last_uploaded>2018-04-04T11:48:19</last_uploaded></row><row _id="221" _uuid="A25F262A-F435-49F9-95F2-86ACB3C0C30E" _position="221" _address="https://opendata.camden.gov.uk/resource/_5rhh-fxna/221"><election_name>Local Council Elections - 3 May 2018</election_name><polling_district_name>KA</polling_district_name><organisation>Kentish Town Health Centre</organisation><street>Bartholomew Road</street><postcode>NW5 2BX</postcode><ward_name>Cantelowes</ward_name><parliamentary_constituency_name>Holborn and St. Pancras</parliamentary_constituency_name><easting>529075</easting><northing>184696</northing><longitude>-0.139929</longitude><latitude>51.546407</latitude><location human_address="{&quot;address&quot;:&quot;&quot;,&quot;city&quot;:&quot;&quot;,&quot;state&quot;:&quot;&quot;,&quot;zip&quot;:&quot;&quot;}" latitude="51.546407" longitude="-0.139929" needs_recoding="false"/><spatial_accuracy>Local Land And Property Gazetteer</spatial_accuracy><socrata_id>33</socrata_id><last_uploaded>2018-04-04T11:48:19</last_uploaded></row><row _id="222" _uuid="0CE9ECE1-CE28-47EC-AE44-BDB78F055BC9" _position="222" _address="https://opendata.camden.gov.uk/resource/_5rhh-fxna/222"><election_name>Local Council Elections - 3 May 2018</election_name><polling_district_name>NA</polling_district_name><organisation>Christ Church C E Primary School</organisation><street>Redhill Street</street><postcode>NW1 4BD</postcode><ward_name>Regent's Park</ward_name><parliamentary_constituency_name>Holborn and St. Pancras</parliamentary_constituency_name><easting>528813</easting><northing>182950</northing><longitude>-0.144344</longitude><latitude>51.530776</latitude><location human_address="{&quot;address&quot;:&quot;&quot;,&quot;city&quot;:&quot;&quot;,&quot;state&quot;:&quot;&quot;,&quot;zip&quot;:&quot;&quot;}" latitude="51.530776" longitude="-0.144344" needs_recoding="false"/><spatial_accuracy>Local Land And Property Gazetteer</spatial_accuracy><socrata_id>44</socrata_id><last_uploaded>2018-04-04T11:48:19</last_uploaded></row><row _id="223" _uuid="F03E2327-9E9C-4B83-BEE3-B212F2A12DC4" _position="223" _address="https://opendata.camden.gov.uk/resource/_5rhh-fxna/223"><election_name>Local Council Elections - 3 May 2018</election_name><polling_district_name>GA</polling_district_name><organisation>St Marys Community Hall</organisation><street>Abbey Road</street><postcode>NW6 4SR</postcode><ward_name>Swiss Cottage</ward_name><parliamentary_constituency_name>Hampstead and Kilburn</parliamentary_constituency_name><easting>525712</easting><northing>184035</northing><longitude>-0.188638</longitude><latitude>51.541225</latitude><location human_address="{&quot;address&quot;:&quot;&quot;,&quot;city&quot;:&quot;&quot;,&quot;state&quot;:&quot;&quot;,&quot;zip&quot;:&quot;&quot;}" latitude="51.541225" longitude="-0.188638" needs_recoding="false"/><spatial_accuracy>Local Land And Property Gazetteer</spatial_accuracy><socrata_id>21</socrata_id><last_uploaded>2018-04-04T11:48:19</last_uploaded></row><row _id="224" _uuid="DA57A456-BB66-43F2-A1AA-B5C49D868D47" _position="224" _address="https://opendata.camden.gov.uk/resource/_5rhh-fxna/224"><election_name>Local Council Elections - 3 May 2018</election_name><polling_district_name>BB</polling_district_name><organisation>Highgate Road Chapel</organisation><street>Chetwynd Road</street><postcode>NW5 1BU</postcode><ward_name>Highgate</ward_name><parliamentary_constituency_name>Holborn and St. Pancras</parliamentary_constituency_name><easting>528658</easting><northing>185859</northing><longitude>-0.145514</longitude><latitude>51.556954</latitude><location human_address="{&quot;address&quot;:&quot;&quot;,&quot;city&quot;:&quot;&quot;,&quot;state&quot;:&quot;&quot;,&quot;zip&quot;:&quot;&quot;}" latitude="51.556954" longitude="-0.145514" needs_recoding="false"/><spatial_accuracy>Local Land And Property Gazetteer</spatial_accuracy><socrata_id>5</socrata_id><last_uploaded>2018-04-04T11:48:19</last_uploaded></row><row _id="225" _uuid="541E08A1-18E6-4702-AD6D-20606B097D20" _position="225" _address="https://opendata.camden.gov.uk/resource/_5rhh-fxna/225"><election_name>Local Council Elections - 3 May 2018</election_name><polling_district_name>JA</polling_district_name><organisation>Rainbow Nursery</organisation><street>Lupton Street</street><postcode>NW5 2JB</postcode><ward_name>Kentish Town</ward_name><parliamentary_constituency_name>Holborn and St. Pancras</parliamentary_constituency_name><easting>529179</easting><northing>185588</northing><longitude>-0.138102</longitude><latitude>51.554399</latitude><location human_address="{&quot;address&quot;:&quot;&quot;,&quot;city&quot;:&quot;&quot;,&quot;state&quot;:&quot;&quot;,&quot;zip&quot;:&quot;&quot;}" latitude="51.554399" longitude="-0.138102" needs_recoding="false"/><spatial_accuracy>Local Land And Property Gazetteer</spatial_accuracy><socrata_id>30</socrata_id><last_uploaded>2018-04-04T11:48:19</last_uploaded></row><row _id="226" _uuid="53D0180C-A103-4D6F-81AA-003F94BD8455" _position="226" _address="https://opendata.camden.gov.uk/resource/_5rhh-fxna/226"><election_name>Local Council Elections - 3 May 2018</election_name><polling_district_name>MA</polling_district_name><organisation>Primrose Hill Community Centre</organisation><street>Hopkinson's Place</street><postcode>NW1 8TN</postcode><ward_name>Camden Town with Primrose Hill</ward_name><parliamentary_constituency_name>Holborn and St. Pancras</parliamentary_constituency_name><easting>528021</easting><northing>183970</northing><longitude>-0.155384</longitude><latitude>51.540122</latitude><location human_address="{&quot;address&quot;:&quot;&quot;,&quot;city&quot;:&quot;&quot;,&quot;state&quot;:&quot;&quot;,&quot;zip&quot;:&quot;&quot;}" latitude="51.540122" longitude="-0.155384" needs_recoding="false"/><spatial_accuracy>Local Land And Property Gazetteer</spatial_accuracy><socrata_id>40</socrata_id><last_uploaded>2018-04-04T11:48:19</last_uploaded></row><row _id="227" _uuid="FFEC735A-FAD9-4616-BB47-8E0F3B5AC145" _position="227" _address="https://opendata.camden.gov.uk/resource/_5rhh-fxna/227"><election_name>Local Council Elections - 3 May 2018</election_name><polling_district_name>LD</polling_district_name><organisation>Salvation Army Centre</organisation><street>Haverstock Hill</street><postcode>NW3 2BL</postcode><ward_name>Haverstock</ward_name><parliamentary_constituency_name>Holborn and St. Pancras</parliamentary_constituency_name><easting>528192</easting><northing>184441</northing><longitude>-0.152749</longitude><latitude>51.544316</latitude><location human_address="{&quot;address&quot;:&quot;&quot;,&quot;city&quot;:&quot;&quot;,&quot;state&quot;:&quot;&quot;,&quot;zip&quot;:&quot;&quot;}" latitude="51.544316" longitude="-0.152749" needs_recoding="false"/><spatial_accuracy>Local Land And Property Gazetteer</spatial_accuracy><socrata_id>39</socrata_id><last_uploaded>2018-04-04T11:48:19</last_uploaded></row><row _id="228" _uuid="0B6EC00C-8B7B-4AB1-856D-A4945354BC83" _position="228" _address="https://opendata.camden.gov.uk/resource/_5rhh-fxna/228"><election_name>Local Council Elections - 3 May 2018</election_name><polling_district_name>NB</polling_district_name><organisation>Samuel Lithgow Youth Centre</organisation><street>Stanhope Street</street><postcode>NW1 3LD</postcode><ward_name>Regent's Park</ward_name><parliamentary_constituency_name>Holborn and St. Pancras</parliamentary_constituency_name><easting>529047</easting><northing>182522</northing><longitude>-0.141129</longitude><latitude>51.526876</latitude><location human_address="{&quot;address&quot;:&quot;&quot;,&quot;city&quot;:&quot;&quot;,&quot;state&quot;:&quot;&quot;,&quot;zip&quot;:&quot;&quot;}" latitude="51.526876" longitude="-0.141129" needs_recoding="false"/><spatial_accuracy>Local Land And Property Gazetteer</spatial_accuracy><socrata_id>45</socrata_id><last_uploaded>2018-04-04T11:48:19</last_uploaded></row><row _id="229" _uuid="FF2F1797-1498-4BF2-9B66-0EEB125D28CA" _position="229" _address="https://opendata.camden.gov.uk/resource/_5rhh-fxna/229"><election_name>Local Council Elections - 3 May 2018</election_name><polling_district_name>PC</polling_district_name><organisation>Calthorpe Project</organisation><street>Gray's Inn Road</street><postcode>WC1X 8LH</postcode><ward_name>King's Cross</ward_name><parliamentary_constituency_name>Holborn and St. Pancras</parliamentary_constituency_name><easting>530678</easting><northing>182585</northing><longitude>-0.117607</longitude><latitude>51.527067</latitude><location human_address="{&quot;address&quot;:&quot;&quot;,&quot;city&quot;:&quot;&quot;,&quot;state&quot;:&quot;&quot;,&quot;zip&quot;:&quot;&quot;}" latitude="51.527067" longitude="-0.117607" needs_recoding="false"/><spatial_accuracy>Local Land And Property Gazetteer</spatial_accuracy><socrata_id>54</socrata_id><last_uploaded>2018-04-04T11:48:19</last_uploaded></row><row _id="230" _uuid="C0966F86-117F-40DC-A9E0-EF546C60F564" _position="230" _address="https://opendata.camden.gov.uk/resource/_5rhh-fxna/230"><election_name>Local Council Elections - 3 May 2018</election_name><polling_district_name>OC</polling_district_name><organisation>Godwin and Crowndale Community Hall</organisation><street>Crowndale Road</street><postcode>NW1 1NN</postcode><ward_name>St Pancras and Somers Town</ward_name><parliamentary_constituency_name>Holborn and St. Pancras</parliamentary_constituency_name><easting>529435</easting><northing>183416</northing><longitude>-0.13521</longitude><latitude>51.534821</latitude><location human_address="{&quot;address&quot;:&quot;&quot;,&quot;city&quot;:&quot;&quot;,&quot;state&quot;:&quot;&quot;,&quot;zip&quot;:&quot;&quot;}" latitude="51.534821" longitude="-0.13521" needs_recoding="false"/><spatial_accuracy>Local Land And Property Gazetteer</spatial_accuracy><socrata_id>49</socrata_id><last_uploaded>2018-04-04T11:48:19</last_uploaded></row><row _id="231" _uuid="80E1EDDF-27AE-4E03-869A-7C8B44477F05" _position="231" _address="https://opendata.camden.gov.uk/resource/_5rhh-fxna/231"><election_name>Local Council Elections - 3 May 2018</election_name><polling_district_name>FC</polling_district_name><organisation>SHELL Centre 2</organisation><street>Boundary Road</street><postcode>NW8 0HU</postcode><ward_name>Kilburn</ward_name><parliamentary_constituency_name>Hampstead and Kilburn</parliamentary_constituency_name><easting>526072</easting><northing>183789</northing><longitude>-0.183538</longitude><latitude>51.538934</latitude><location human_address="{&quot;address&quot;:&quot;&quot;,&quot;city&quot;:&quot;&quot;,&quot;state&quot;:&quot;&quot;,&quot;zip&quot;:&quot;&quot;}" latitude="51.538934" longitude="-0.183538" needs_recoding="false"/><spatial_accuracy>Local Land And Property Gazetteer</spatial_accuracy><socrata_id>19</socrata_id><last_uploaded>2018-04-04T11:48:19</last_uploaded></row><row _id="232" _uuid="E91108C6-9244-401A-911C-7D87A9C50855" _position="232" _address="https://opendata.camden.gov.uk/resource/_5rhh-fxna/232"><election_name>Local Council Elections - 3 May 2018</election_name><polling_district_name>KC</polling_district_name><organisation>Maiden Lane Community Centre</organisation><street>St Paul's Crescent</street><postcode>NW1 9XZ</postcode><ward_name>Cantelowes</ward_name><parliamentary_constituency_name>Holborn and St. Pancras</parliamentary_constituency_name><easting>529860</easting><northing>184152</northing><longitude>-0.128815</longitude><latitude>51.541338</latitude><location human_address="{&quot;address&quot;:&quot;&quot;,&quot;city&quot;:&quot;&quot;,&quot;state&quot;:&quot;&quot;,&quot;zip&quot;:&quot;&quot;}" latitude="51.541338" longitude="-0.128815" needs_recoding="false"/><spatial_accuracy>Local Land And Property Gazetteer</spatial_accuracy><socrata_id>35</socrata_id><last_uploaded>2018-04-04T11:48:19</last_uploaded></row><row _id="233" _uuid="2743D9CE-52AA-459B-9C5B-A913CE3CF282" _position="233" _address="https://opendata.camden.gov.uk/resource/_5rhh-fxna/233"><election_name>Local Council Elections - 3 May 2018</election_name><polling_district_name>GC</polling_district_name><organisation>Swiss Cottage Library (Glass Foyer)</organisation><street>Avenue Road</street><postcode>NW3 3HA</postcode><ward_name>Swiss Cottage</ward_name><parliamentary_constituency_name>Hampstead and Kilburn</parliamentary_constituency_name><easting>526779</easting><northing>184180</northing><longitude>-0.173208</longitude><latitude>51.54229</latitude><location human_address="{&quot;address&quot;:&quot;&quot;,&quot;city&quot;:&quot;&quot;,&quot;state&quot;:&quot;&quot;,&quot;zip&quot;:&quot;&quot;}" latitude="51.54229" longitude="-0.173208" needs_recoding="false"/><spatial_accuracy>Local Land And Property Gazetteer</spatial_accuracy><socrata_id>23</socrata_id><last_uploaded>2018-04-04T11:48:19</last_uploaded></row><row _id="234" _uuid="BBA23207-8DBC-4482-8F57-CB727BB3F44C" _position="234" _address="https://opendata.camden.gov.uk/resource/_5rhh-fxna/234"><election_name>Local Council Elections - 3 May 2018</election_name><polling_district_name>LA</polling_district_name><organisation>Maitland Park Gymnasium</organisation><street>Maitland Park Villas</street><postcode>NW3 2EH</postcode><ward_name>Haverstock</ward_name><parliamentary_constituency_name>Holborn and St. Pancras</parliamentary_constituency_name><easting>527835</easting><northing>184912</northing><longitude>-0.157723</longitude><latitude>51.54863</latitude><location human_address="{&quot;address&quot;:&quot;&quot;,&quot;city&quot;:&quot;&quot;,&quot;state&quot;:&quot;&quot;,&quot;zip&quot;:&quot;&quot;}" latitude="51.54863" longitude="-0.157723" needs_recoding="false"/><spatial_accuracy>Local Land And Property Gazetteer</spatial_accuracy><socrata_id>36</socrata_id><last_uploaded>2018-04-04T11:48:19</last_uploaded></row><row _id="235" _uuid="12A3747D-3EDA-4419-84AC-A805089E7C9C" _position="235" _address="https://opendata.camden.gov.uk/resource/_5rhh-fxna/235"><election_name>Local Council Elections - 3 May 2018</election_name><polling_district_name>ED</polling_district_name><organisation>St James Hall</organisation><street>Sherriff Road</street><postcode>NW6 2AP</postcode><ward_name>West Hampstead</ward_name><parliamentary_constituency_name>Hampstead and Kilburn</parliamentary_constituency_name><easting>525449</easting><northing>184541</northing><longitude>-0.192248</longitude><latitude>51.545831</latitude><location human_address="{&quot;address&quot;:&quot;&quot;,&quot;city&quot;:&quot;&quot;,&quot;state&quot;:&quot;&quot;,&quot;zip&quot;:&quot;&quot;}" latitude="51.545831" longitude="-0.192248" needs_recoding="false"/><spatial_accuracy>Local Land And Property Gazetteer</spatial_accuracy><socrata_id>16</socrata_id><last_uploaded>2018-04-04T11:48:19</last_uploaded></row><row _id="236" _uuid="C4D9F00B-ACDB-4E06-AF38-B9EB991CAC5B" _position="236" _address="https://opendata.camden.gov.uk/resource/_5rhh-fxna/236"><election_name>Local Council Elections - 3 May 2018</election_name><polling_district_name>EC</polling_district_name><organisation>Brondesbury Christian Centre</organisation><street>Iverson Road</street><postcode>NW6 2QT</postcode><ward_name>West Hampstead</ward_name><parliamentary_constituency_name>Hampstead and Kilburn</parliamentary_constituency_name><easting>524791</easting><northing>184564</northing><longitude>-0.201724</longitude><latitude>51.546183</latitude><location human_address="{&quot;address&quot;:&quot;&quot;,&quot;city&quot;:&quot;&quot;,&quot;state&quot;:&quot;&quot;,&quot;zip&quot;:&quot;&quot;}" latitude="51.546183" longitude="-0.201724" needs_recoding="false"/><spatial_accuracy>Local Land And Property Gazetteer</spatial_accuracy><socrata_id>15</socrata_id><last_uploaded>2018-04-04T11:48:19</last_uploaded></row><row _id="237" _uuid="9E5434D8-9D04-4C32-A801-4DF62AF5D695" _position="237" _address="https://opendata.camden.gov.uk/resource/_5rhh-fxna/237"><election_name>Local Council Elections - 3 May 2018</election_name><polling_district_name>RC</polling_district_name><organisation>St. Alban's Centre</organisation><street>Leigh Place</street><postcode>EC1N 7AB</postcode><ward_name>Holborn and Covent Garden</ward_name><parliamentary_constituency_name>Holborn and St. Pancras</parliamentary_constituency_name><easting>531199</easting><northing>181793</northing><longitude>-0.110396</longitude><latitude>51.519829</latitude><location human_address="{&quot;address&quot;:&quot;&quot;,&quot;city&quot;:&quot;&quot;,&quot;state&quot;:&quot;&quot;,&quot;zip&quot;:&quot;&quot;}" latitude="51.519829" longitude="-0.110396" needs_recoding="false"/><spatial_accuracy>Local Land And Property Gazetteer</spatial_accuracy><socrata_id>60</socrata_id><last_uploaded>2018-04-04T11:48:19</last_uploaded></row><row _id="238" _uuid="F66B31E6-076E-4679-977A-0CEB8AB27F94" _position="238" _address="https://opendata.camden.gov.uk/resource/_5rhh-fxna/238"><election_name>Local Council Elections - 3 May 2018</election_name><polling_district_name>OD</polling_district_name><organisation>Ossulston Tenants and Residents Association Hall</organisation><street>Ossulston Street</street><postcode>NW1 1EU</postcode><ward_name>St Pancras and Somers Town</ward_name><parliamentary_constituency_name>Holborn and St. Pancras</parliamentary_constituency_name><easting>529737</easting><northing>182979</northing><longitude>-0.131019</longitude><latitude>51.530825</latitude><location human_address="{&quot;address&quot;:&quot;&quot;,&quot;city&quot;:&quot;&quot;,&quot;state&quot;:&quot;&quot;,&quot;zip&quot;:&quot;&quot;}" latitude="51.530825" longitude="-0.131019" needs_recoding="false"/><spatial_accuracy>Local Land And Property Gazetteer</spatial_accuracy><socrata_id>50</socrata_id><last_uploaded>2018-04-04T11:48:19</last_uploaded></row><row _id="239" _uuid="2101D8B4-3B21-4F8C-A2D6-1D25FD9DA0B1" _position="239" _address="https://opendata.camden.gov.uk/resource/_5rhh-fxna/239"><election_name>Local Council Elections - 3 May 2018</election_name><polling_district_name>BA</polling_district_name><organisation>Holly Lodge Community Centre</organisation><street>Makepeace Avenue</street><postcode>N6 6HL</postcode><ward_name>Highgate</ward_name><parliamentary_constituency_name>Holborn and St. Pancras</parliamentary_constituency_name><easting>528445</easting><northing>186710</northing><longitude>-0.148274</longitude><latitude>51.56465</latitude><location human_address="{&quot;address&quot;:&quot;&quot;,&quot;city&quot;:&quot;&quot;,&quot;state&quot;:&quot;&quot;,&quot;zip&quot;:&quot;&quot;}" latitude="51.56465" longitude="-0.148274" needs_recoding="false"/><spatial_accuracy>Local Land And Property Gazetteer</spatial_accuracy><socrata_id>4</socrata_id><last_uploaded>2018-04-04T11:48:19</last_uploaded></row><row _id="240" _uuid="CC7309BA-1988-4A75-945D-26337A72B797" _position="240" _address="https://opendata.camden.gov.uk/resource/_5rhh-fxna/240"><election_name>Local Council Elections - 3 May 2018</election_name><polling_district_name>IC</polling_district_name><organisation>Queens Crescent Community Centre</organisation><street>Ashdown Crescent</street><postcode>NW5 4QE</postcode><ward_name>Gospel Oak</ward_name><parliamentary_constituency_name>Holborn and St. Pancras</parliamentary_constituency_name><easting>528214</easting><northing>185089</northing><longitude>-0.152195</longitude><latitude>51.550135</latitude><location human_address="{&quot;address&quot;:&quot;&quot;,&quot;city&quot;:&quot;&quot;,&quot;state&quot;:&quot;&quot;,&quot;zip&quot;:&quot;&quot;}" latitude="51.550135" longitude="-0.152195" needs_recoding="false"/><spatial_accuracy>Local Land And Property Gazetteer</spatial_accuracy><socrata_id>29</socrata_id><last_uploaded>2018-04-04T11:48:19</last_uploaded></row></row></response>