<response><row><row _id="61" _uuid="8C254203-91B5-472C-9F6C-61ADB8728CFF" _position="61" _address="https://opendata.camden.gov.uk/resource/_5rhh-fxna/61"><election_name>Local Council Elections - 3 May 2018</election_name><polling_district_name>DA</polling_district_name><organisation>Templar House Social Hall</organisation><street>Shoot-Up Hill</street><postcode>NW2 3TD</postcode><ward_name>Fortune Green</ward_name><parliamentary_constituency_name>Hampstead and Kilburn</parliamentary_constituency_name><easting>524583</easting><northing>184805</northing><longitude>-0.204674</longitude><latitude>51.548403</latitude><location human_address="{&quot;address&quot;:&quot;&quot;,&quot;city&quot;:&quot;&quot;,&quot;state&quot;:&quot;&quot;,&quot;zip&quot;:&quot;&quot;}" latitude="51.548403" longitude="-0.204674" needs_recoding="false"/><spatial_accuracy>Local Land And Property Gazetteer</spatial_accuracy><socrata_id>10</socrata_id><last_uploaded>2018-01-23T15:01:29</last_uploaded></row><row _id="62" _uuid="8E320713-7575-4E8F-A7CC-50BD6E8BA000" _position="62" _address="https://opendata.camden.gov.uk/resource/_5rhh-fxna/62"><election_name>Local Council Elections - 3 May 2018</election_name><polling_district_name>OB</polling_district_name><organisation>St Pancras Community Centre</organisation><street>Plender Street</street><postcode>NW1 0LB</postcode><ward_name>St Pancras and Somers Town</ward_name><parliamentary_constituency_name>Holborn and St. Pancras</parliamentary_constituency_name><easting>529288</easting><northing>183600</northing><longitude>-0.137299</longitude><latitude>51.536517</latitude><location human_address="{&quot;address&quot;:&quot;&quot;,&quot;city&quot;:&quot;&quot;,&quot;state&quot;:&quot;&quot;,&quot;zip&quot;:&quot;&quot;}" latitude="51.536517" longitude="-0.137299" needs_recoding="false"/><spatial_accuracy>Local Land And Property Gazetteer</spatial_accuracy><socrata_id>48</socrata_id><last_uploaded>2018-01-23T15:01:29</last_uploaded></row><row _id="63" _uuid="DCAD5630-83BC-47CE-9465-CAC791641D71" _position="63" _address="https://opendata.camden.gov.uk/resource/_5rhh-fxna/63"><election_name>Local Council Elections - 3 May 2018</election_name><polling_district_name>HA</polling_district_name><organisation>Belsize Synagogue</organisation><street>Belsize Square</street><postcode>NW3 4HX</postcode><ward_name>Belsize</ward_name><parliamentary_constituency_name>Hampstead and Kilburn</parliamentary_constituency_name><easting>526965</easting><northing>184750</northing><longitude>-0.170359</longitude><latitude>51.547378</latitude><location human_address="{&quot;address&quot;:&quot;&quot;,&quot;city&quot;:&quot;&quot;,&quot;state&quot;:&quot;&quot;,&quot;zip&quot;:&quot;&quot;}" latitude="51.547378" longitude="-0.170359" needs_recoding="false"/><spatial_accuracy>Local Land And Property Gazetteer</spatial_accuracy><socrata_id>24</socrata_id><last_uploaded>2018-01-23T15:01:29</last_uploaded></row><row _id="64" _uuid="48D20DEF-2FA7-4413-8FE0-B831E122EC11" _position="64" _address="https://opendata.camden.gov.uk/resource/_5rhh-fxna/64"><election_name>Local Council Elections - 3 May 2018</election_name><polling_district_name>CA</polling_district_name><organisation>St Luke's Church of England School</organisation><street>Kidderpore Avenue</street><postcode>NW3 7SU</postcode><ward_name>Frognal and Fitzjohns</ward_name><parliamentary_constituency_name>Hampstead and Kilburn</parliamentary_constituency_name><easting>525269</easting><northing>185902</northing><longitude>-0.194395</longitude><latitude>51.55811</latitude><location human_address="{&quot;address&quot;:&quot;&quot;,&quot;city&quot;:&quot;&quot;,&quot;state&quot;:&quot;&quot;,&quot;zip&quot;:&quot;&quot;}" latitude="51.55811" longitude="-0.194395" needs_recoding="false"/><spatial_accuracy>Local Land And Property Gazetteer</spatial_accuracy><socrata_id>7</socrata_id><last_uploaded>2018-01-23T15:01:29</last_uploaded></row><row _id="65" _uuid="9727CD99-AC34-406A-B3E0-3D4AC038E6AB" _position="65" _address="https://opendata.camden.gov.uk/resource/_5rhh-fxna/65"><election_name>Local Council Elections - 3 May 2018</election_name><polling_district_name>GC</polling_district_name><organisation>Swiss Cottage Library (Glass Foyer)</organisation><street>Avenue Road</street><postcode>NW3 3HA</postcode><ward_name>Swiss Cottage</ward_name><parliamentary_constituency_name>Hampstead and Kilburn</parliamentary_constituency_name><easting>526779</easting><northing>184180</northing><longitude>-0.173245</longitude><latitude>51.542298</latitude><location human_address="{&quot;address&quot;:&quot;&quot;,&quot;city&quot;:&quot;&quot;,&quot;state&quot;:&quot;&quot;,&quot;zip&quot;:&quot;&quot;}" latitude="51.542298" longitude="-0.173245" needs_recoding="false"/><spatial_accuracy>Local Land And Property Gazetteer</spatial_accuracy><socrata_id>23</socrata_id><last_uploaded>2018-01-23T15:01:29</last_uploaded></row><row _id="66" _uuid="397938C2-098C-422F-9CAD-AB5808AA3227" _position="66" _address="https://opendata.camden.gov.uk/resource/_5rhh-fxna/66"><election_name>Local Council Elections - 3 May 2018</election_name><polling_district_name>BB</polling_district_name><organisation>Highgate Road Chapel</organisation><street>Chetwynd Road</street><postcode>NW5 1BU</postcode><ward_name>Highgate</ward_name><parliamentary_constituency_name>Holborn and St. Pancras</parliamentary_constituency_name><easting>528658</easting><northing>185859</northing><longitude>-0.145552</longitude><latitude>51.556961</latitude><location human_address="{&quot;address&quot;:&quot;&quot;,&quot;city&quot;:&quot;&quot;,&quot;state&quot;:&quot;&quot;,&quot;zip&quot;:&quot;&quot;}" latitude="51.556961" longitude="-0.145552" needs_recoding="false"/><spatial_accuracy>Local Land And Property Gazetteer</spatial_accuracy><socrata_id>5</socrata_id><last_uploaded>2018-01-23T15:01:29</last_uploaded></row><row _id="67" _uuid="E966F13F-F302-4EA9-87D3-AE17A18E63A5" _position="67" _address="https://opendata.camden.gov.uk/resource/_5rhh-fxna/67"><election_name>Local Council Elections - 3 May 2018</election_name><polling_district_name>CB</polling_district_name><organisation>St John at Hampstead Parish Church</organisation><street>Church Row</street><postcode>NW3 6UU</postcode><ward_name>Frognal and Fitzjohns</ward_name><parliamentary_constituency_name>Hampstead and Kilburn</parliamentary_constituency_name><easting>526198</easting><northing>185614</northing><longitude>-0.181105</longitude><latitude>51.555315</latitude><location human_address="{&quot;address&quot;:&quot;&quot;,&quot;city&quot;:&quot;&quot;,&quot;state&quot;:&quot;&quot;,&quot;zip&quot;:&quot;&quot;}" latitude="51.555315" longitude="-0.181105" needs_recoding="false"/><spatial_accuracy>Local Land And Property Gazetteer</spatial_accuracy><socrata_id>8</socrata_id><last_uploaded>2018-01-23T15:01:29</last_uploaded></row><row _id="68" _uuid="73E23363-6125-4502-B46D-E2E99712EABF" _position="68" _address="https://opendata.camden.gov.uk/resource/_5rhh-fxna/68"><election_name>Local Council Elections - 3 May 2018</election_name><polling_district_name>RC</polling_district_name><organisation>St. Alban's Centre</organisation><street>Leigh Place</street><postcode>EC1N 7AB</postcode><ward_name>Holborn and Covent Garden</ward_name><parliamentary_constituency_name>Holborn and St. Pancras</parliamentary_constituency_name><easting>531199</easting><northing>181793</northing><longitude>-0.110434</longitude><latitude>51.519838</latitude><location human_address="{&quot;address&quot;:&quot;&quot;,&quot;city&quot;:&quot;&quot;,&quot;state&quot;:&quot;&quot;,&quot;zip&quot;:&quot;&quot;}" latitude="51.519838" longitude="-0.110434" needs_recoding="false"/><spatial_accuracy>Local Land And Property Gazetteer</spatial_accuracy><socrata_id>60</socrata_id><last_uploaded>2018-01-23T15:01:29</last_uploaded></row><row _id="69" _uuid="213CEB6B-9C66-45CF-8317-BD01505C156D" _position="69" _address="https://opendata.camden.gov.uk/resource/_5rhh-fxna/69"><election_name>Local Council Elections - 3 May 2018</election_name><polling_district_name>HB</polling_district_name><organisation>Belsize Branch Library</organisation><street>Antrim Road</street><postcode>NW3 4XN</postcode><ward_name>Belsize</ward_name><parliamentary_constituency_name>Hampstead and Kilburn</parliamentary_constituency_name><easting>527523</easting><northing>184823</northing><longitude>-0.16229</longitude><latitude>51.547909</latitude><location human_address="{&quot;address&quot;:&quot;&quot;,&quot;city&quot;:&quot;&quot;,&quot;state&quot;:&quot;&quot;,&quot;zip&quot;:&quot;&quot;}" latitude="51.547909" longitude="-0.16229" needs_recoding="false"/><spatial_accuracy>Local Land And Property Gazetteer</spatial_accuracy><socrata_id>25</socrata_id><last_uploaded>2018-01-23T15:01:29</last_uploaded></row><row _id="70" _uuid="1DE7DC46-661D-41D6-BE4D-C32EFD8E44F5" _position="70" _address="https://opendata.camden.gov.uk/resource/_5rhh-fxna/70"><election_name>Local Council Elections - 3 May 2018</election_name><polling_district_name>PA</polling_district_name><organisation>Camden Chinese Community Centre</organisation><street>Tavistock Place</street><postcode>WC1H 9SN</postcode><ward_name>King's Cross</ward_name><parliamentary_constituency_name>Holborn and St. Pancras</parliamentary_constituency_name><easting>530036</easting><northing>182379</northing><longitude>-0.12697</longitude><latitude>51.525372</latitude><location human_address="{&quot;address&quot;:&quot;&quot;,&quot;city&quot;:&quot;&quot;,&quot;state&quot;:&quot;&quot;,&quot;zip&quot;:&quot;&quot;}" latitude="51.525372" longitude="-0.12697" needs_recoding="false"/><spatial_accuracy>Local Land And Property Gazetteer</spatial_accuracy><socrata_id>52</socrata_id><last_uploaded>2018-01-23T15:01:29</last_uploaded></row><row _id="71" _uuid="F3D8F1DC-7A7E-4DD0-B2AE-8A0BE9D0102C" _position="71" _address="https://opendata.camden.gov.uk/resource/_5rhh-fxna/71"><election_name>Local Council Elections - 3 May 2018</election_name><polling_district_name>JC</polling_district_name><organisation>Kentish Town Primary School</organisation><street>Islip Street</street><postcode>NW5 2TU</postcode><ward_name>Kentish Town</ward_name><parliamentary_constituency_name>Holborn and St. Pancras</parliamentary_constituency_name><easting>529113</easting><northing>185066</northing><longitude>-0.139283</longitude><latitude>51.549731</latitude><location human_address="{&quot;address&quot;:&quot;&quot;,&quot;city&quot;:&quot;&quot;,&quot;state&quot;:&quot;&quot;,&quot;zip&quot;:&quot;&quot;}" latitude="51.549731" longitude="-0.139283" needs_recoding="false"/><spatial_accuracy>Local Land And Property Gazetteer</spatial_accuracy><socrata_id>32</socrata_id><last_uploaded>2018-01-23T15:01:29</last_uploaded></row><row _id="72" _uuid="90CF589A-BB8E-4B58-A3C1-A322A46483C6" _position="72" _address="https://opendata.camden.gov.uk/resource/_5rhh-fxna/72"><election_name>Local Council Elections - 3 May 2018</election_name><polling_district_name>NA</polling_district_name><organisation>Christ Church C E Primary School</organisation><street>Redhill Street</street><postcode>NW1 4BD</postcode><ward_name>Regent's Park</ward_name><parliamentary_constituency_name>Holborn and St. Pancras</parliamentary_constituency_name><easting>528813</easting><northing>182950</northing><longitude>-0.144381</longitude><latitude>51.530784</latitude><location human_address="{&quot;address&quot;:&quot;&quot;,&quot;city&quot;:&quot;&quot;,&quot;state&quot;:&quot;&quot;,&quot;zip&quot;:&quot;&quot;}" latitude="51.530784" longitude="-0.144381" needs_recoding="false"/><spatial_accuracy>Local Land And Property Gazetteer</spatial_accuracy><socrata_id>44</socrata_id><last_uploaded>2018-01-23T15:01:29</last_uploaded></row><row _id="73" _uuid="D6CB4C6A-CEF9-4EC7-BCE5-689202F72BB2" _position="73" _address="https://opendata.camden.gov.uk/resource/_5rhh-fxna/73"><election_name>Local Council Elections - 3 May 2018</election_name><polling_district_name>AB</polling_district_name><organisation>Fitzjohn's Primary School</organisation><street>Fitzjohn's Avenue</street><postcode>NW3 6NP</postcode><ward_name>Hampstead Town</ward_name><parliamentary_constituency_name>Hampstead and Kilburn</parliamentary_constituency_name><easting>526614</easting><northing>185439</northing><longitude>-0.175171</longitude><latitude>51.553649</latitude><location human_address="{&quot;address&quot;:&quot;&quot;,&quot;city&quot;:&quot;&quot;,&quot;state&quot;:&quot;&quot;,&quot;zip&quot;:&quot;&quot;}" latitude="51.553649" longitude="-0.175171" needs_recoding="false"/><spatial_accuracy>Local Land And Property Gazetteer</spatial_accuracy><socrata_id>2</socrata_id><last_uploaded>2018-01-23T15:01:29</last_uploaded></row><row _id="74" _uuid="53B7F347-6CA8-451B-AF92-DEC5FAAA61A8" _position="74" _address="https://opendata.camden.gov.uk/resource/_5rhh-fxna/74"><election_name>Local Council Elections - 3 May 2018</election_name><polling_district_name>IC</polling_district_name><organisation>Queens Crescent Community Centre</organisation><street>Ashdown Crescent</street><postcode>NW5 4QE</postcode><ward_name>Gospel Oak</ward_name><parliamentary_constituency_name>Holborn and St. Pancras</parliamentary_constituency_name><easting>528214</easting><northing>185089</northing><longitude>-0.152233</longitude><latitude>51.550143</latitude><location human_address="{&quot;address&quot;:&quot;&quot;,&quot;city&quot;:&quot;&quot;,&quot;state&quot;:&quot;&quot;,&quot;zip&quot;:&quot;&quot;}" latitude="51.550143" longitude="-0.152233" needs_recoding="false"/><spatial_accuracy>Local Land And Property Gazetteer</spatial_accuracy><socrata_id>29</socrata_id><last_uploaded>2018-01-23T15:01:29</last_uploaded></row><row _id="75" _uuid="D516C711-17B4-4C55-B9AC-E0CB9B855D1B" _position="75" _address="https://opendata.camden.gov.uk/resource/_5rhh-fxna/75"><election_name>Local Council Elections - 3 May 2018</election_name><polling_district_name>FD</polling_district_name><organisation>Mortimer Crescent Tenants and Residents Association Hall</organisation><street>Mortimer Crescent</street><postcode>NW6 5UR</postcode><ward_name>Kilburn</ward_name><parliamentary_constituency_name>Hampstead and Kilburn</parliamentary_constituency_name><easting>525733</easting><northing>183519</northing><longitude>-0.188556</longitude><latitude>51.536591</latitude><location human_address="{&quot;address&quot;:&quot;&quot;,&quot;city&quot;:&quot;&quot;,&quot;state&quot;:&quot;&quot;,&quot;zip&quot;:&quot;&quot;}" latitude="51.536591" longitude="-0.188556" needs_recoding="false"/><spatial_accuracy>Local Land And Property Gazetteer</spatial_accuracy><socrata_id>20</socrata_id><last_uploaded>2018-01-23T15:01:29</last_uploaded></row><row _id="76" _uuid="48258E7B-F275-4720-AC0B-F9DE6A80C457" _position="76" _address="https://opendata.camden.gov.uk/resource/_5rhh-fxna/76"><election_name>Local Council Elections - 3 May 2018</election_name><polling_district_name>NC</polling_district_name><organisation>Crowndale Centre District Housing Office (DHO) Reception Area</organisation><street>Eversholt Street</street><postcode>NW1 1BD</postcode><ward_name>Regent's Park</ward_name><parliamentary_constituency_name>Holborn and St. Pancras</parliamentary_constituency_name><easting>529261</easting><northing>183348</northing><longitude>-0.13778</longitude><latitude>51.534258</latitude><location human_address="{&quot;address&quot;:&quot;&quot;,&quot;city&quot;:&quot;&quot;,&quot;state&quot;:&quot;&quot;,&quot;zip&quot;:&quot;&quot;}" latitude="51.534258" longitude="-0.13778" needs_recoding="false"/><spatial_accuracy>Local Land And Property Gazetteer</spatial_accuracy><socrata_id>46</socrata_id><last_uploaded>2018-01-23T15:01:29</last_uploaded></row><row _id="77" _uuid="4A1BCE22-A91C-4FF3-AA3C-946BC97572AF" _position="77" _address="https://opendata.camden.gov.uk/resource/_5rhh-fxna/77"><election_name>Local Council Elections - 3 May 2018</election_name><polling_district_name>KA</polling_district_name><organisation>Kentish Town Health Centre</organisation><street>Bartholomew Road</street><postcode>NW5 2BX</postcode><ward_name>Cantelowes</ward_name><parliamentary_constituency_name>Holborn and St. Pancras</parliamentary_constituency_name><easting>529075</easting><northing>184696</northing><longitude>-0.139966</longitude><latitude>51.546415</latitude><location human_address="{&quot;address&quot;:&quot;&quot;,&quot;city&quot;:&quot;&quot;,&quot;state&quot;:&quot;&quot;,&quot;zip&quot;:&quot;&quot;}" latitude="51.546415" longitude="-0.139966" needs_recoding="false"/><spatial_accuracy>Local Land And Property Gazetteer</spatial_accuracy><socrata_id>33</socrata_id><last_uploaded>2018-01-23T15:01:29</last_uploaded></row><row _id="78" _uuid="0BDB06B0-180E-4F1B-A6BE-C955E6F1DC6C" _position="78" _address="https://opendata.camden.gov.uk/resource/_5rhh-fxna/78"><election_name>Local Council Elections - 3 May 2018</election_name><polling_district_name>LD</polling_district_name><organisation>Salvation Army Centre</organisation><street>Haverstock Hill</street><postcode>NW3 2BL</postcode><ward_name>Haverstock</ward_name><parliamentary_constituency_name>Holborn and St. Pancras</parliamentary_constituency_name><easting>528192</easting><northing>184441</northing><longitude>-0.152786</longitude><latitude>51.544324</latitude><location human_address="{&quot;address&quot;:&quot;&quot;,&quot;city&quot;:&quot;&quot;,&quot;state&quot;:&quot;&quot;,&quot;zip&quot;:&quot;&quot;}" latitude="51.544324" longitude="-0.152786" needs_recoding="false"/><spatial_accuracy>Local Land And Property Gazetteer</spatial_accuracy><socrata_id>39</socrata_id><last_uploaded>2018-01-23T15:01:29</last_uploaded></row><row _id="79" _uuid="504C1E40-26B7-4BC5-9C10-D81338A9435B" _position="79" _address="https://opendata.camden.gov.uk/resource/_5rhh-fxna/79"><election_name>Local Council Elections - 3 May 2018</election_name><polling_district_name>MD</polling_district_name><organisation>Choices</organisation><street>Carol Street</street><postcode>NW1 0HT</postcode><ward_name>Camden Town with Primrose Hill</ward_name><parliamentary_constituency_name>Holborn and St. Pancras</parliamentary_constituency_name><easting>529041</easting><northing>183859</northing><longitude>-0.140763</longitude><latitude>51.538901</latitude><location human_address="{&quot;address&quot;:&quot;&quot;,&quot;city&quot;:&quot;&quot;,&quot;state&quot;:&quot;&quot;,&quot;zip&quot;:&quot;&quot;}" latitude="51.538901" longitude="-0.140763" needs_recoding="false"/><spatial_accuracy>Local Land And Property Gazetteer</spatial_accuracy><socrata_id>43</socrata_id><last_uploaded>2018-01-23T15:01:29</last_uploaded></row><row _id="80" _uuid="A9BEB599-2821-44BA-8E69-D3D4BFE6B8FC" _position="80" _address="https://opendata.camden.gov.uk/resource/_5rhh-fxna/80"><election_name>Local Council Elections - 3 May 2018</election_name><polling_district_name>QB</polling_district_name><organisation>The Drill Hall Theatre</organisation><street>Chenies Street</street><postcode>WC1E 7EX</postcode><ward_name>Bloomsbury</ward_name><parliamentary_constituency_name>Holborn and St. Pancras</parliamentary_constituency_name><easting>529659</easting><northing>181847</northing><longitude>-0.132597</longitude><latitude>51.520678</latitude><location human_address="{&quot;address&quot;:&quot;&quot;,&quot;city&quot;:&quot;&quot;,&quot;state&quot;:&quot;&quot;,&quot;zip&quot;:&quot;&quot;}" latitude="51.520678" longitude="-0.132597" needs_recoding="false"/><spatial_accuracy>Local Land And Property Gazetteer</spatial_accuracy><socrata_id>56</socrata_id><last_uploaded>2018-01-23T15:01:29</last_uploaded></row><row _id="81" _uuid="57E37197-EF76-493E-9AFB-EB2F12C56B73" _position="81" _address="https://opendata.camden.gov.uk/resource/_5rhh-fxna/81"><election_name>Local Council Elections - 3 May 2018</election_name><polling_district_name>GB</polling_district_name><organisation>Crossfield Day Centre</organisation><street>Fairhazel Gardens</street><postcode>NW6 3SG</postcode><ward_name>Swiss Cottage</ward_name><parliamentary_constituency_name>Hampstead and Kilburn</parliamentary_constituency_name><easting>526259</easting><northing>184156</northing><longitude>-0.180748</longitude><latitude>51.542198</latitude><location human_address="{&quot;address&quot;:&quot;&quot;,&quot;city&quot;:&quot;&quot;,&quot;state&quot;:&quot;&quot;,&quot;zip&quot;:&quot;&quot;}" latitude="51.542198" longitude="-0.180748" needs_recoding="false"/><spatial_accuracy>Local Land And Property Gazetteer</spatial_accuracy><socrata_id>22</socrata_id><last_uploaded>2018-01-23T15:01:29</last_uploaded></row><row _id="82" _uuid="2BDCA963-7950-4B9B-994E-76E0AE500D28" _position="82" _address="https://opendata.camden.gov.uk/resource/_5rhh-fxna/82"><election_name>Local Council Elections - 3 May 2018</election_name><polling_district_name>MA</polling_district_name><organisation>Primrose Hill Community Centre</organisation><street>Hopkinson's Place</street><postcode>NW1 8TN</postcode><ward_name>Camden Town with Primrose Hill</ward_name><parliamentary_constituency_name>Holborn and St. Pancras</parliamentary_constituency_name><easting>528021</easting><northing>183970</northing><longitude>-0.155422</longitude><latitude>51.54013</latitude><location human_address="{&quot;address&quot;:&quot;&quot;,&quot;city&quot;:&quot;&quot;,&quot;state&quot;:&quot;&quot;,&quot;zip&quot;:&quot;&quot;}" latitude="51.54013" longitude="-0.155422" needs_recoding="false"/><spatial_accuracy>Local Land And Property Gazetteer</spatial_accuracy><socrata_id>40</socrata_id><last_uploaded>2018-01-23T15:01:29</last_uploaded></row><row _id="83" _uuid="FB6C189B-5C30-4744-A2F8-79F9D909969B" _position="83" _address="https://opendata.camden.gov.uk/resource/_5rhh-fxna/83"><election_name>Local Council Elections - 3 May 2018</election_name><polling_district_name>BA</polling_district_name><organisation>Holly Lodge Community Centre</organisation><street>Makepeace Avenue</street><postcode>N6 6HL</postcode><ward_name>Highgate</ward_name><parliamentary_constituency_name>Holborn and St. Pancras</parliamentary_constituency_name><easting>528445</easting><northing>186710</northing><longitude>-0.148312</longitude><latitude>51.564658</latitude><location human_address="{&quot;address&quot;:&quot;&quot;,&quot;city&quot;:&quot;&quot;,&quot;state&quot;:&quot;&quot;,&quot;zip&quot;:&quot;&quot;}" latitude="51.564658" longitude="-0.148312" needs_recoding="false"/><spatial_accuracy>Local Land And Property Gazetteer</spatial_accuracy><socrata_id>4</socrata_id><last_uploaded>2018-01-23T15:01:29</last_uploaded></row><row _id="84" _uuid="E7614FE6-0844-4B30-A3C0-2BDFA1409166" _position="84" _address="https://opendata.camden.gov.uk/resource/_5rhh-fxna/84"><election_name>Local Council Elections - 3 May 2018</election_name><polling_district_name>CC</polling_district_name><organisation>Holy Trinity Church Hall</organisation><street>Sumpter Close</street><postcode>NW3 5HR</postcode><ward_name>Frognal and Fitzjohns</ward_name><parliamentary_constituency_name>Hampstead and Kilburn</parliamentary_constituency_name><easting>526371</easting><northing>184697</northing><longitude>-0.17894</longitude><latitude>51.547035</latitude><location human_address="{&quot;address&quot;:&quot;&quot;,&quot;city&quot;:&quot;&quot;,&quot;state&quot;:&quot;&quot;,&quot;zip&quot;:&quot;&quot;}" latitude="51.547035" longitude="-0.17894" needs_recoding="false"/><spatial_accuracy>Local Land And Property Gazetteer</spatial_accuracy><socrata_id>9</socrata_id><last_uploaded>2018-01-23T15:01:29</last_uploaded></row><row _id="85" _uuid="BC29A557-1091-46E6-B2B8-E6B9444DC1F6" _position="85" _address="https://opendata.camden.gov.uk/resource/_5rhh-fxna/85"><election_name>Local Council Elections - 3 May 2018</election_name><polling_district_name>OE</polling_district_name><organisation>Saxon Court Office</organisation><street>Beaconsfield Street</street><postcode>N1C 4AR</postcode><ward_name>St Pancras and Somers Town</ward_name><parliamentary_constituency_name>Holborn and St. Pancras</parliamentary_constituency_name><easting>530202</easting><northing>183871</northing><longitude>-0.124028</longitude><latitude>51.538742</latitude><location human_address="{&quot;address&quot;:&quot;&quot;,&quot;city&quot;:&quot;&quot;,&quot;state&quot;:&quot;&quot;,&quot;zip&quot;:&quot;&quot;}" latitude="51.538742" longitude="-0.124028" needs_recoding="false"/><spatial_accuracy>Local Land And Property Gazetteer</spatial_accuracy><socrata_id>51</socrata_id><last_uploaded>2018-01-23T15:01:29</last_uploaded></row><row _id="86" _uuid="62D37696-3227-44F4-BFBF-ECE2F5EC8654" _position="86" _address="https://opendata.camden.gov.uk/resource/_5rhh-fxna/86"><election_name>Local Council Elections - 3 May 2018</election_name><polling_district_name>JA</polling_district_name><organisation>Rainbow Nursery</organisation><street>Lupton Street</street><postcode>NW5 2JB</postcode><ward_name>Kentish Town</ward_name><parliamentary_constituency_name>Holborn and St. Pancras</parliamentary_constituency_name><easting>529179</easting><northing>185588</northing><longitude>-0.13814</longitude><latitude>51.554407</latitude><location human_address="{&quot;address&quot;:&quot;&quot;,&quot;city&quot;:&quot;&quot;,&quot;state&quot;:&quot;&quot;,&quot;zip&quot;:&quot;&quot;}" latitude="51.554407" longitude="-0.13814" needs_recoding="false"/><spatial_accuracy>Local Land And Property Gazetteer</spatial_accuracy><socrata_id>30</socrata_id><last_uploaded>2018-01-23T15:01:29</last_uploaded></row><row _id="87" _uuid="78B83A0C-137A-4AD1-91E3-2A3A517E9DB5" _position="87" _address="https://opendata.camden.gov.uk/resource/_5rhh-fxna/87"><election_name>Local Council Elections - 3 May 2018</election_name><polling_district_name>AA</polling_district_name><organisation>Burgh House</organisation><street>New End Square</street><postcode>NW3 1LT</postcode><ward_name>Hampstead Town</ward_name><parliamentary_constituency_name>Hampstead and Kilburn</parliamentary_constituency_name><easting>526606</easting><northing>185943</northing><longitude>-0.175105</longitude><latitude>51.55818</latitude><location human_address="{&quot;address&quot;:&quot;&quot;,&quot;city&quot;:&quot;&quot;,&quot;state&quot;:&quot;&quot;,&quot;zip&quot;:&quot;&quot;}" latitude="51.55818" longitude="-0.175105" needs_recoding="false"/><spatial_accuracy>Local Land And Property Gazetteer</spatial_accuracy><socrata_id>1</socrata_id><last_uploaded>2018-01-23T15:01:27</last_uploaded></row><row _id="88" _uuid="AC05197B-B25E-44A4-AA6C-59EAB1D2E872" _position="88" _address="https://opendata.camden.gov.uk/resource/_5rhh-fxna/88"><election_name>Local Council Elections - 3 May 2018</election_name><polling_district_name>ED</polling_district_name><organisation>St James Hall</organisation><street>Sherriff Road</street><postcode>NW6 2AP</postcode><ward_name>West Hampstead</ward_name><parliamentary_constituency_name>Hampstead and Kilburn</parliamentary_constituency_name><easting>525449</easting><northing>184541</northing><longitude>-0.192285</longitude><latitude>51.545839</latitude><location human_address="{&quot;address&quot;:&quot;&quot;,&quot;city&quot;:&quot;&quot;,&quot;state&quot;:&quot;&quot;,&quot;zip&quot;:&quot;&quot;}" latitude="51.545839" longitude="-0.192285" needs_recoding="false"/><spatial_accuracy>Local Land And Property Gazetteer</spatial_accuracy><socrata_id>16</socrata_id><last_uploaded>2018-01-23T15:01:29</last_uploaded></row><row _id="89" _uuid="6D792297-B48E-4C90-BA0A-BC74FFE38879" _position="89" _address="https://opendata.camden.gov.uk/resource/_5rhh-fxna/89"><election_name>Local Council Elections - 3 May 2018</election_name><polling_district_name>EC</polling_district_name><organisation>Brondesbury Christian Centre</organisation><street>Iverson Road</street><postcode>NW6 2QT</postcode><ward_name>West Hampstead</ward_name><parliamentary_constituency_name>Hampstead and Kilburn</parliamentary_constituency_name><easting>524791</easting><northing>184564</northing><longitude>-0.201761</longitude><latitude>51.546191</latitude><location human_address="{&quot;address&quot;:&quot;&quot;,&quot;city&quot;:&quot;&quot;,&quot;state&quot;:&quot;&quot;,&quot;zip&quot;:&quot;&quot;}" latitude="51.546191" longitude="-0.201761" needs_recoding="false"/><spatial_accuracy>Local Land And Property Gazetteer</spatial_accuracy><socrata_id>15</socrata_id><last_uploaded>2018-01-23T15:01:29</last_uploaded></row><row _id="90" _uuid="0E27BC5F-C934-4AAE-B220-E8514948577C" _position="90" _address="https://opendata.camden.gov.uk/resource/_5rhh-fxna/90"><election_name>Local Council Elections - 3 May 2018</election_name><polling_district_name>KB</polling_district_name><organisation>The Irish Centre</organisation><street>Camden Square</street><postcode>NW1 9XA</postcode><ward_name>Cantelowes</ward_name><parliamentary_constituency_name>Holborn and St. Pancras</parliamentary_constituency_name><easting>529617</easting><northing>184415</northing><longitude>-0.132258</longitude><latitude>51.543765</latitude><location human_address="{&quot;address&quot;:&quot;&quot;,&quot;city&quot;:&quot;&quot;,&quot;state&quot;:&quot;&quot;,&quot;zip&quot;:&quot;&quot;}" latitude="51.543765" longitude="-0.132258" needs_recoding="false"/><spatial_accuracy>Local Land And Property Gazetteer</spatial_accuracy><socrata_id>34</socrata_id><last_uploaded>2018-01-23T15:01:29</last_uploaded></row><row _id="91" _uuid="67244F74-70E3-4883-99BF-C66543F2D7BB" _position="91" _address="https://opendata.camden.gov.uk/resource/_5rhh-fxna/91"><election_name>Local Council Elections - 3 May 2018</election_name><polling_district_name>KC</polling_district_name><organisation>Maiden Lane Community Centre</organisation><street>St Paul's Crescent</street><postcode>NW1 9XZ</postcode><ward_name>Cantelowes</ward_name><parliamentary_constituency_name>Holborn and St. Pancras</parliamentary_constituency_name><easting>529860</easting><northing>184152</northing><longitude>-0.128853</longitude><latitude>51.541346</latitude><location human_address="{&quot;address&quot;:&quot;&quot;,&quot;city&quot;:&quot;&quot;,&quot;state&quot;:&quot;&quot;,&quot;zip&quot;:&quot;&quot;}" latitude="51.541346" longitude="-0.128853" needs_recoding="false"/><spatial_accuracy>Local Land And Property Gazetteer</spatial_accuracy><socrata_id>35</socrata_id><last_uploaded>2018-01-23T15:01:29</last_uploaded></row><row _id="92" _uuid="19487411-BB12-417A-95B5-096AD990A214" _position="92" _address="https://opendata.camden.gov.uk/resource/_5rhh-fxna/92"><election_name>Local Council Elections - 3 May 2018</election_name><polling_district_name>IA</polling_district_name><organisation>Gospel Oak Methodist Church</organisation><street>Agincourt Road</street><postcode>NW3 2NT</postcode><ward_name>Gospel Oak</ward_name><parliamentary_constituency_name>Holborn and St. Pancras</parliamentary_constituency_name><easting>527746</easting><northing>185495</northing><longitude>-0.158832</longitude><latitude>51.553897</latitude><location human_address="{&quot;address&quot;:&quot;&quot;,&quot;city&quot;:&quot;&quot;,&quot;state&quot;:&quot;&quot;,&quot;zip&quot;:&quot;&quot;}" latitude="51.553897" longitude="-0.158832" needs_recoding="false"/><spatial_accuracy>Local Land And Property Gazetteer</spatial_accuracy><socrata_id>27</socrata_id><last_uploaded>2018-01-23T15:01:29</last_uploaded></row><row _id="93" _uuid="260D889E-F454-4402-A59F-850E0785DED9" _position="93" _address="https://opendata.camden.gov.uk/resource/_5rhh-fxna/93"><election_name>Local Council Elections - 3 May 2018</election_name><polling_district_name>RB</polling_district_name><organisation>St George The Martyr Church</organisation><street>Queen Square</street><postcode>WC1N 3AH</postcode><ward_name>Holborn and Covent Garden</ward_name><parliamentary_constituency_name>Holborn and St. Pancras</parliamentary_constituency_name><easting>530364</easting><northing>181896</northing><longitude>-0.122424</longitude><latitude>51.520956</latitude><location human_address="{&quot;address&quot;:&quot;&quot;,&quot;city&quot;:&quot;&quot;,&quot;state&quot;:&quot;&quot;,&quot;zip&quot;:&quot;&quot;}" latitude="51.520956" longitude="-0.122424" needs_recoding="false"/><spatial_accuracy>Local Land And Property Gazetteer</spatial_accuracy><socrata_id>59</socrata_id><last_uploaded>2018-01-23T15:01:29</last_uploaded></row><row _id="94" _uuid="B9540316-5749-49E4-93F6-7089AB646A01" _position="94" _address="https://opendata.camden.gov.uk/resource/_5rhh-fxna/94"><election_name>Local Council Elections - 3 May 2018</election_name><polling_district_name>PB</polling_district_name><organisation>Main Hall, Camden Centre</organisation><street>Bidborough Street</street><postcode>WC1H 9AU</postcode><ward_name>King's Cross</ward_name><parliamentary_constituency_name>Holborn and St. Pancras</parliamentary_constituency_name><easting>530153</easting><northing>182806</northing><longitude>-0.125127</longitude><latitude>51.529183</latitude><location human_address="{&quot;address&quot;:&quot;&quot;,&quot;city&quot;:&quot;&quot;,&quot;state&quot;:&quot;&quot;,&quot;zip&quot;:&quot;&quot;}" latitude="51.529183" longitude="-0.125127" needs_recoding="false"/><spatial_accuracy>Local Land And Property Gazetteer</spatial_accuracy><socrata_id>53</socrata_id><last_uploaded>2018-01-23T15:01:29</last_uploaded></row><row _id="95" _uuid="071FF6BD-C129-4C2C-B56F-08F7D697EDF5" _position="95" _address="https://opendata.camden.gov.uk/resource/_5rhh-fxna/95"><election_name>Local Council Elections - 3 May 2018</election_name><polling_district_name>FC</polling_district_name><organisation>SHELL Centre 2</organisation><street>Boundary Road</street><postcode>NW8 0HU</postcode><ward_name>Kilburn</ward_name><parliamentary_constituency_name>Hampstead and Kilburn</parliamentary_constituency_name><easting>526072</easting><northing>183789</northing><longitude>-0.183575</longitude><latitude>51.538942</latitude><location human_address="{&quot;address&quot;:&quot;&quot;,&quot;city&quot;:&quot;&quot;,&quot;state&quot;:&quot;&quot;,&quot;zip&quot;:&quot;&quot;}" latitude="51.538942" longitude="-0.183575" needs_recoding="false"/><spatial_accuracy>Local Land And Property Gazetteer</spatial_accuracy><socrata_id>19</socrata_id><last_uploaded>2018-01-23T15:01:29</last_uploaded></row><row _id="96" _uuid="38C05082-C45E-4855-ABE5-E004BB6DBEB5" _position="96" _address="https://opendata.camden.gov.uk/resource/_5rhh-fxna/96"><election_name>Local Council Elections - 3 May 2018</election_name><polling_district_name>LA</polling_district_name><organisation>Maitland Park Gymnasium</organisation><street>Maitland Park Villas</street><postcode>NW3 2EH</postcode><ward_name>Haverstock</ward_name><parliamentary_constituency_name>Holborn and St. Pancras</parliamentary_constituency_name><easting>527835</easting><northing>184912</northing><longitude>-0.157761</longitude><latitude>51.548638</latitude><location human_address="{&quot;address&quot;:&quot;&quot;,&quot;city&quot;:&quot;&quot;,&quot;state&quot;:&quot;&quot;,&quot;zip&quot;:&quot;&quot;}" latitude="51.548638" longitude="-0.157761" needs_recoding="false"/><spatial_accuracy>Local Land And Property Gazetteer</spatial_accuracy><socrata_id>36</socrata_id><last_uploaded>2018-01-23T15:01:29</last_uploaded></row><row _id="97" _uuid="63835491-5361-43CB-965E-52A5F83665DF" _position="97" _address="https://opendata.camden.gov.uk/resource/_5rhh-fxna/97"><election_name>Local Council Elections - 3 May 2018</election_name><polling_district_name>OA</polling_district_name><organisation>Agar Grove TA Lulworth Meeting Room</organisation><street>Wrotham Road</street><postcode>NW1 9SS</postcode><ward_name>St Pancras and Somers Town</ward_name><parliamentary_constituency_name>Holborn and St. Pancras</parliamentary_constituency_name><easting>529554</easting><northing>184206</northing><longitude>-0.133243</longitude><latitude>51.541902</latitude><location human_address="{&quot;address&quot;:&quot;&quot;,&quot;city&quot;:&quot;&quot;,&quot;state&quot;:&quot;&quot;,&quot;zip&quot;:&quot;&quot;}" latitude="51.541902" longitude="-0.133243" needs_recoding="false"/><spatial_accuracy>Local Land And Property Gazetteer</spatial_accuracy><socrata_id>47</socrata_id><last_uploaded>2018-01-23T15:01:29</last_uploaded></row><row _id="98" _uuid="6872DB02-78FB-4A9C-8DD9-0C67AEBB1BBB" _position="98" _address="https://opendata.camden.gov.uk/resource/_5rhh-fxna/98"><election_name>Local Council Elections - 3 May 2018</election_name><polling_district_name>EB</polling_district_name><organisation>Lymington Road Residents Association Hall</organisation><street>Dresden Close</street><postcode>NW6 1XP</postcode><ward_name>West Hampstead</ward_name><parliamentary_constituency_name>Hampstead and Kilburn</parliamentary_constituency_name><easting>525982</easting><northing>185031</northing><longitude>-0.184428</longitude><latitude>51.550124</latitude><location human_address="{&quot;address&quot;:&quot;&quot;,&quot;city&quot;:&quot;&quot;,&quot;state&quot;:&quot;&quot;,&quot;zip&quot;:&quot;&quot;}" latitude="51.550124" longitude="-0.184428" needs_recoding="false"/><spatial_accuracy>Local Land And Property Gazetteer</spatial_accuracy><socrata_id>14</socrata_id><last_uploaded>2018-01-23T15:01:29</last_uploaded></row><row _id="99" _uuid="1B8B0BA9-A4C7-487F-937E-FFD991B3850E" _position="99" _address="https://opendata.camden.gov.uk/resource/_5rhh-fxna/99"><election_name>Local Council Elections - 3 May 2018</election_name><polling_district_name>MC</polling_district_name><organisation>Castlehaven Community Centre</organisation><street>Castlehaven Road</street><postcode>NW1 8RU</postcode><ward_name>Camden Town with Primrose Hill</ward_name><parliamentary_constituency_name>Holborn and St. Pancras</parliamentary_constituency_name><easting>528721</easting><northing>184283</northing><longitude>-0.14522</longitude><latitude>51.542784</latitude><location human_address="{&quot;address&quot;:&quot;&quot;,&quot;city&quot;:&quot;&quot;,&quot;state&quot;:&quot;&quot;,&quot;zip&quot;:&quot;&quot;}" latitude="51.542784" longitude="-0.14522" needs_recoding="false"/><spatial_accuracy>Local Land And Property Gazetteer</spatial_accuracy><socrata_id>42</socrata_id><last_uploaded>2018-01-23T15:01:29</last_uploaded></row><row _id="100" _uuid="66219AF4-AC80-4F69-A461-B36E7513AAC4" _position="100" _address="https://opendata.camden.gov.uk/resource/_5rhh-fxna/100"><election_name>Local Council Elections - 3 May 2018</election_name><polling_district_name>AC</polling_district_name><organisation>Heath Branch Library</organisation><street>Keats Grove</street><postcode>NW3 2RR</postcode><ward_name>Hampstead Town</ward_name><parliamentary_constituency_name>Hampstead and Kilburn</parliamentary_constituency_name><easting>527089</easting><northing>185656</northing><longitude>-0.168245</longitude><latitude>51.555492</latitude><location human_address="{&quot;address&quot;:&quot;&quot;,&quot;city&quot;:&quot;&quot;,&quot;state&quot;:&quot;&quot;,&quot;zip&quot;:&quot;&quot;}" latitude="51.555492" longitude="-0.168245" needs_recoding="false"/><spatial_accuracy>Local Land And Property Gazetteer</spatial_accuracy><socrata_id>3</socrata_id><last_uploaded>2018-01-23T15:01:29</last_uploaded></row><row _id="101" _uuid="9ED73647-6539-44DF-A5AD-B02244A62B6C" _position="101" _address="https://opendata.camden.gov.uk/resource/_5rhh-fxna/101"><election_name>Local Council Elections - 3 May 2018</election_name><polling_district_name>LC</polling_district_name><organisation>St Saviours Church Hall</organisation><street>Eton Road</street><postcode>NW3 4SU</postcode><ward_name>Haverstock</ward_name><parliamentary_constituency_name>Holborn and St. Pancras</parliamentary_constituency_name><easting>527808</easting><northing>184489</northing><longitude>-0.158303</longitude><latitude>51.544843</latitude><location human_address="{&quot;address&quot;:&quot;&quot;,&quot;city&quot;:&quot;&quot;,&quot;state&quot;:&quot;&quot;,&quot;zip&quot;:&quot;&quot;}" latitude="51.544843" longitude="-0.158303" needs_recoding="false"/><spatial_accuracy>Local Land And Property Gazetteer</spatial_accuracy><socrata_id>38</socrata_id><last_uploaded>2018-01-23T15:01:29</last_uploaded></row><row _id="102" _uuid="22F5B81B-B4F6-44D7-BCE2-708009E1B008" _position="102" _address="https://opendata.camden.gov.uk/resource/_5rhh-fxna/102"><election_name>Local Council Elections - 3 May 2018</election_name><polling_district_name>FB</polling_district_name><organisation>Abbey Community Centre</organisation><street>Belsize Road</street><postcode>NW6 4DJ</postcode><ward_name>Kilburn</ward_name><parliamentary_constituency_name>Hampstead and Kilburn</parliamentary_constituency_name><easting>525714</easting><northing>183841</northing><longitude>-0.188715</longitude><latitude>51.539489</latitude><location human_address="{&quot;address&quot;:&quot;&quot;,&quot;city&quot;:&quot;&quot;,&quot;state&quot;:&quot;&quot;,&quot;zip&quot;:&quot;&quot;}" latitude="51.539489" longitude="-0.188715" needs_recoding="false"/><spatial_accuracy>Local Land And Property Gazetteer</spatial_accuracy><socrata_id>18</socrata_id><last_uploaded>2018-01-23T15:01:29</last_uploaded></row><row _id="103" _uuid="565E0A54-9E73-40F1-A630-DDD771A4FB1A" _position="103" _address="https://opendata.camden.gov.uk/resource/_5rhh-fxna/103"><election_name>Local Council Elections - 3 May 2018</election_name><polling_district_name>LB</polling_district_name><organisation>Rhyl Primary School</organisation><street>Rhyl Street</street><postcode>NW5 3HB</postcode><ward_name>Haverstock</ward_name><parliamentary_constituency_name>Holborn and St. Pancras</parliamentary_constituency_name><easting>528335</easting><northing>184803</northing><longitude>-0.150593</longitude><latitude>51.547545</latitude><location human_address="{&quot;address&quot;:&quot;&quot;,&quot;city&quot;:&quot;&quot;,&quot;state&quot;:&quot;&quot;,&quot;zip&quot;:&quot;&quot;}" latitude="51.547545" longitude="-0.150593" needs_recoding="false"/><spatial_accuracy>Local Land And Property Gazetteer</spatial_accuracy><socrata_id>37</socrata_id><last_uploaded>2018-01-23T15:01:29</last_uploaded></row><row _id="104" _uuid="0135740F-B29F-4961-AB2F-3C0A47B980EA" _position="104" _address="https://opendata.camden.gov.uk/resource/_5rhh-fxna/104"><election_name>Local Council Elections - 3 May 2018</election_name><polling_district_name>JB</polling_district_name><organisation>Kentish Town Congregational Church</organisation><street>Kelly Street</street><postcode>NW1 8PH</postcode><ward_name>Kentish Town</ward_name><parliamentary_constituency_name>Holborn and St. Pancras</parliamentary_constituency_name><easting>528859</easting><northing>184651</northing><longitude>-0.143096</longitude><latitude>51.54606</latitude><location human_address="{&quot;address&quot;:&quot;&quot;,&quot;city&quot;:&quot;&quot;,&quot;state&quot;:&quot;&quot;,&quot;zip&quot;:&quot;&quot;}" latitude="51.54606" longitude="-0.143096" needs_recoding="false"/><spatial_accuracy>Local Land And Property Gazetteer</spatial_accuracy><socrata_id>31</socrata_id><last_uploaded>2018-01-23T15:01:29</last_uploaded></row><row _id="105" _uuid="DE4D2C70-B52E-40D3-A512-7FC661D839D2" _position="105" _address="https://opendata.camden.gov.uk/resource/_5rhh-fxna/105"><election_name>Local Council Elections - 3 May 2018</election_name><polling_district_name>DC</polling_district_name><organisation>Emmanuel Church</organisation><street>Lyncroft Gardens</street><postcode>NW6 1JU</postcode><ward_name>Fortune Green</ward_name><parliamentary_constituency_name>Hampstead and Kilburn</parliamentary_constituency_name><easting>525413</easting><northing>185302</northing><longitude>-0.192533</longitude><latitude>51.552686</latitude><location human_address="{&quot;address&quot;:&quot;&quot;,&quot;city&quot;:&quot;&quot;,&quot;state&quot;:&quot;&quot;,&quot;zip&quot;:&quot;&quot;}" latitude="51.552686" longitude="-0.192533" needs_recoding="false"/><spatial_accuracy>Local Land And Property Gazetteer</spatial_accuracy><socrata_id>12</socrata_id><last_uploaded>2018-01-23T15:01:29</last_uploaded></row><row _id="106" _uuid="02411019-7A06-49D5-9CB9-A9BC8800ABC0" _position="106" _address="https://opendata.camden.gov.uk/resource/_5rhh-fxna/106"><election_name>Local Council Elections - 3 May 2018</election_name><polling_district_name>QC</polling_district_name><organisation>Marchmont Street Community Centre</organisation><street>Marchmont Street</street><postcode>WC1N 1AB</postcode><ward_name>Bloomsbury</ward_name><parliamentary_constituency_name>Holborn and St. Pancras</parliamentary_constituency_name><easting>530161</easting><northing>182379</northing><longitude>-0.12517</longitude><latitude>51.525344</latitude><location human_address="{&quot;address&quot;:&quot;&quot;,&quot;city&quot;:&quot;&quot;,&quot;state&quot;:&quot;&quot;,&quot;zip&quot;:&quot;&quot;}" latitude="51.525344" longitude="-0.12517" needs_recoding="false"/><spatial_accuracy>Local Land And Property Gazetteer</spatial_accuracy><socrata_id>57</socrata_id><last_uploaded>2018-01-23T15:01:29</last_uploaded></row><row _id="107" _uuid="990D9AF6-59B9-45D6-A5AC-B0DEEE9E4B3A" _position="107" _address="https://opendata.camden.gov.uk/resource/_5rhh-fxna/107"><election_name>Local Council Elections - 3 May 2018</election_name><polling_district_name>PC</polling_district_name><organisation>Calthorpe Project</organisation><street>Gray's Inn Road</street><postcode>WC1X 8LH</postcode><ward_name>King's Cross</ward_name><parliamentary_constituency_name>Holborn and St. Pancras</parliamentary_constituency_name><easting>530678</easting><northing>182585</northing><longitude>-0.117645</longitude><latitude>51.527076</latitude><location human_address="{&quot;address&quot;:&quot;&quot;,&quot;city&quot;:&quot;&quot;,&quot;state&quot;:&quot;&quot;,&quot;zip&quot;:&quot;&quot;}" latitude="51.527076" longitude="-0.117645" needs_recoding="false"/><spatial_accuracy>Local Land And Property Gazetteer</spatial_accuracy><socrata_id>54</socrata_id><last_uploaded>2018-01-23T15:01:29</last_uploaded></row><row _id="108" _uuid="7681936A-AA09-4609-92FC-5C9C5428E87D" _position="108" _address="https://opendata.camden.gov.uk/resource/_5rhh-fxna/108"><election_name>Local Council Elections - 3 May 2018</election_name><polling_district_name>FA</polling_district_name><organisation>Kingsgate Community Centre</organisation><street>Kingsgate Road</street><postcode>NW6 2JH</postcode><ward_name>Kilburn</ward_name><parliamentary_constituency_name>Hampstead and Kilburn</parliamentary_constituency_name><easting>525177</easting><northing>184362</northing><longitude>-0.196269</longitude><latitude>51.54429</latitude><location human_address="{&quot;address&quot;:&quot;&quot;,&quot;city&quot;:&quot;&quot;,&quot;state&quot;:&quot;&quot;,&quot;zip&quot;:&quot;&quot;}" latitude="51.54429" longitude="-0.196269" needs_recoding="false"/><spatial_accuracy>Local Land And Property Gazetteer</spatial_accuracy><socrata_id>17</socrata_id><last_uploaded>2018-01-23T15:01:29</last_uploaded></row><row _id="109" _uuid="E8FA4F24-F0A9-4F64-98E1-454F7EAEFE55" _position="109" _address="https://opendata.camden.gov.uk/resource/_5rhh-fxna/109"><election_name>Local Council Elections - 3 May 2018</election_name><polling_district_name>EA</polling_district_name><organisation>West Hampstead Branch Library</organisation><street>Dennington Park Road</street><postcode>NW6 1AU</postcode><ward_name>West Hampstead</ward_name><parliamentary_constituency_name>Hampstead and Kilburn</parliamentary_constituency_name><easting>525481</easting><northing>185041</northing><longitude>-0.191646</longitude><latitude>51.550325</latitude><location human_address="{&quot;address&quot;:&quot;&quot;,&quot;city&quot;:&quot;&quot;,&quot;state&quot;:&quot;&quot;,&quot;zip&quot;:&quot;&quot;}" latitude="51.550325" longitude="-0.191646" needs_recoding="false"/><spatial_accuracy>Local Land And Property Gazetteer</spatial_accuracy><socrata_id>13</socrata_id><last_uploaded>2018-01-23T15:01:29</last_uploaded></row><row _id="110" _uuid="A0E8203A-45F2-4DE7-9071-818E4B67C3E8" _position="110" _address="https://opendata.camden.gov.uk/resource/_5rhh-fxna/110"><election_name>Local Council Elections - 3 May 2018</election_name><polling_district_name>NB</polling_district_name><organisation>Samuel Lithgow Youth Centre</organisation><street>Stanhope Street</street><postcode>NW1 3LD</postcode><ward_name>Regent's Park</ward_name><parliamentary_constituency_name>Holborn and St. Pancras</parliamentary_constituency_name><easting>529047</easting><northing>182522</northing><longitude>-0.141166</longitude><latitude>51.526884</latitude><location human_address="{&quot;address&quot;:&quot;&quot;,&quot;city&quot;:&quot;&quot;,&quot;state&quot;:&quot;&quot;,&quot;zip&quot;:&quot;&quot;}" latitude="51.526884" longitude="-0.141166" needs_recoding="false"/><spatial_accuracy>Local Land And Property Gazetteer</spatial_accuracy><socrata_id>45</socrata_id><last_uploaded>2018-01-23T15:01:29</last_uploaded></row><row _id="111" _uuid="B0633F68-F264-4064-BC15-2850D60A9011" _position="111" _address="https://opendata.camden.gov.uk/resource/_5rhh-fxna/111"><election_name>Local Council Elections - 3 May 2018</election_name><polling_district_name>IB</polling_district_name><organisation>Kiln Place Tenants Association Hall</organisation><street>Kiln Place</street><postcode>NW5 4AP</postcode><ward_name>Gospel Oak</ward_name><parliamentary_constituency_name>Holborn and St. Pancras</parliamentary_constituency_name><easting>528276</easting><northing>185519</northing><longitude>-0.151183</longitude><latitude>51.553993</latitude><location human_address="{&quot;address&quot;:&quot;&quot;,&quot;city&quot;:&quot;&quot;,&quot;state&quot;:&quot;&quot;,&quot;zip&quot;:&quot;&quot;}" latitude="51.553993" longitude="-0.151183" needs_recoding="false"/><spatial_accuracy>Local Land And Property Gazetteer</spatial_accuracy><socrata_id>28</socrata_id><last_uploaded>2018-01-23T15:01:29</last_uploaded></row><row _id="112" _uuid="EC385261-E9C9-430E-96C1-EE28B08C61B2" _position="112" _address="https://opendata.camden.gov.uk/resource/_5rhh-fxna/112"><election_name>Local Council Elections - 3 May 2018</election_name><polling_district_name>BC</polling_district_name><organisation>Highgate Library Civic and Cultural Centre</organisation><street>Chester Road</street><postcode>N19 5DH</postcode><ward_name>Highgate</ward_name><parliamentary_constituency_name>Holborn and St. Pancras</parliamentary_constituency_name><easting>528739</easting><northing>186620</northing><longitude>-0.144106</longitude><latitude>51.563782</latitude><location human_address="{&quot;address&quot;:&quot;&quot;,&quot;city&quot;:&quot;&quot;,&quot;state&quot;:&quot;&quot;,&quot;zip&quot;:&quot;&quot;}" latitude="51.563782" longitude="-0.144106" needs_recoding="false"/><spatial_accuracy>Local Land And Property Gazetteer</spatial_accuracy><socrata_id>6</socrata_id><last_uploaded>2018-01-23T15:01:29</last_uploaded></row><row _id="113" _uuid="56FC5619-AA46-4513-A16A-1599DA9525EC" _position="113" _address="https://opendata.camden.gov.uk/resource/_5rhh-fxna/113"><election_name>Local Council Elections - 3 May 2018</election_name><polling_district_name>RA</polling_district_name><organisation>Oasis Sports Centre</organisation><street>Endell Street</street><postcode>WC2H 9AG</postcode><ward_name>Holborn and Covent Garden</ward_name><parliamentary_constituency_name>Holborn and St. Pancras</parliamentary_constituency_name><easting>530137</easting><northing>181302</northing><longitude>-0.125913</longitude><latitude>51.515671</latitude><location human_address="{&quot;address&quot;:&quot;&quot;,&quot;city&quot;:&quot;&quot;,&quot;state&quot;:&quot;&quot;,&quot;zip&quot;:&quot;&quot;}" latitude="51.515671" longitude="-0.125913" needs_recoding="false"/><spatial_accuracy>Local Land And Property Gazetteer</spatial_accuracy><socrata_id>58</socrata_id><last_uploaded>2018-01-23T15:01:29</last_uploaded></row><row _id="114" _uuid="41DA0EBF-BD29-4319-B27F-21E8896F14B4" _position="114" _address="https://opendata.camden.gov.uk/resource/_5rhh-fxna/114"><election_name>Local Council Elections - 3 May 2018</election_name><polling_district_name>MB</polling_district_name><organisation>The Pirate Castle</organisation><street>Oval Road</street><postcode>NW1 7EA</postcode><ward_name>Camden Town with Primrose Hill</ward_name><parliamentary_constituency_name>Holborn and St. Pancras</parliamentary_constituency_name><easting>528498</easting><northing>184006</northing><longitude>-0.148535</longitude><latitude>51.540345</latitude><location human_address="{&quot;address&quot;:&quot;&quot;,&quot;city&quot;:&quot;&quot;,&quot;state&quot;:&quot;&quot;,&quot;zip&quot;:&quot;&quot;}" latitude="51.540345" longitude="-0.148535" needs_recoding="false"/><spatial_accuracy>Local Land And Property Gazetteer</spatial_accuracy><socrata_id>41</socrata_id><last_uploaded>2018-01-23T15:01:29</last_uploaded></row><row _id="115" _uuid="0450097E-1EE8-47AE-9B75-051FF4045F6A" _position="115" _address="https://opendata.camden.gov.uk/resource/_5rhh-fxna/115"><election_name>Local Council Elections - 3 May 2018</election_name><polling_district_name>DB</polling_district_name><organisation>Beckford Primary School</organisation><street>Dornfell Street</street><postcode>NW6 1QL</postcode><ward_name>Fortune Green</ward_name><parliamentary_constituency_name>Hampstead and Kilburn</parliamentary_constituency_name><easting>524934</easting><northing>185067</northing><longitude>-0.199522</longitude><latitude>51.55068</latitude><location human_address="{&quot;address&quot;:&quot;&quot;,&quot;city&quot;:&quot;&quot;,&quot;state&quot;:&quot;&quot;,&quot;zip&quot;:&quot;&quot;}" latitude="51.55068" longitude="-0.199522" needs_recoding="false"/><spatial_accuracy>Local Land And Property Gazetteer</spatial_accuracy><socrata_id>11</socrata_id><last_uploaded>2018-01-23T15:01:29</last_uploaded></row><row _id="116" _uuid="A8F2BA66-4314-4760-B9C0-042CC1D4D63E" _position="116" _address="https://opendata.camden.gov.uk/resource/_5rhh-fxna/116"><election_name>Local Council Elections - 3 May 2018</election_name><polling_district_name>GA</polling_district_name><organisation>St Marys Community Hall</organisation><street>Abbey Road</street><postcode>NW6 4SR</postcode><ward_name>Swiss Cottage</ward_name><parliamentary_constituency_name>Hampstead and Kilburn</parliamentary_constituency_name><easting>525712</easting><northing>184035</northing><longitude>-0.188675</longitude><latitude>51.541233</latitude><location human_address="{&quot;address&quot;:&quot;&quot;,&quot;city&quot;:&quot;&quot;,&quot;state&quot;:&quot;&quot;,&quot;zip&quot;:&quot;&quot;}" latitude="51.541233" longitude="-0.188675" needs_recoding="false"/><spatial_accuracy>Local Land And Property Gazetteer</spatial_accuracy><socrata_id>21</socrata_id><last_uploaded>2018-01-23T15:01:29</last_uploaded></row><row _id="117" _uuid="B926B260-7A6D-4406-99DE-16DA7B9AB289" _position="117" _address="https://opendata.camden.gov.uk/resource/_5rhh-fxna/117"><election_name>Local Council Elections - 3 May 2018</election_name><polling_district_name>QA</polling_district_name><organisation>Ramsay Hall</organisation><street>Maple Street</street><postcode>W1T 5HB</postcode><ward_name>Bloomsbury</ward_name><parliamentary_constituency_name>Holborn and St. Pancras</parliamentary_constituency_name><easting>529238</easting><northing>182046</northing><longitude>-0.138589</longitude><latitude>51.522563</latitude><location human_address="{&quot;address&quot;:&quot;&quot;,&quot;city&quot;:&quot;&quot;,&quot;state&quot;:&quot;&quot;,&quot;zip&quot;:&quot;&quot;}" latitude="51.522563" longitude="-0.138589" needs_recoding="false"/><spatial_accuracy>Local Land And Property Gazetteer</spatial_accuracy><socrata_id>55</socrata_id><last_uploaded>2018-01-23T15:01:29</last_uploaded></row><row _id="118" _uuid="BA6830D3-4F98-4486-88A1-7CE6C3D1007B" _position="118" _address="https://opendata.camden.gov.uk/resource/_5rhh-fxna/118"><election_name>Local Council Elections - 3 May 2018</election_name><polling_district_name>OC</polling_district_name><organisation>Godwin and Crowndale Community Hall</organisation><street>Crowndale Road</street><postcode>NW1 1NN</postcode><ward_name>St Pancras and Somers Town</ward_name><parliamentary_constituency_name>Holborn and St. Pancras</parliamentary_constituency_name><easting>529435</easting><northing>183416</northing><longitude>-0.135248</longitude><latitude>51.534829</latitude><location human_address="{&quot;address&quot;:&quot;&quot;,&quot;city&quot;:&quot;&quot;,&quot;state&quot;:&quot;&quot;,&quot;zip&quot;:&quot;&quot;}" latitude="51.534829" longitude="-0.135248" needs_recoding="false"/><spatial_accuracy>Local Land And Property Gazetteer</spatial_accuracy><socrata_id>49</socrata_id><last_uploaded>2018-01-23T15:01:29</last_uploaded></row><row _id="119" _uuid="4085CD58-82F3-480D-B541-D4D0F827B520" _position="119" _address="https://opendata.camden.gov.uk/resource/_5rhh-fxna/119"><election_name>Local Council Elections - 3 May 2018</election_name><polling_district_name>HC</polling_district_name><organisation>Bray Tenants Hall</organisation><street>Fellows Road</street><postcode>NW3 3JX</postcode><ward_name>Belsize</ward_name><parliamentary_constituency_name>Hampstead and Kilburn</parliamentary_constituency_name><easting>527247</easting><northing>184337</northing><longitude>-0.166444</longitude><latitude>51.543603</latitude><location human_address="{&quot;address&quot;:&quot;&quot;,&quot;city&quot;:&quot;&quot;,&quot;state&quot;:&quot;&quot;,&quot;zip&quot;:&quot;&quot;}" latitude="51.543603" longitude="-0.166444" needs_recoding="false"/><spatial_accuracy>Local Land And Property Gazetteer</spatial_accuracy><socrata_id>26</socrata_id><last_uploaded>2018-01-23T15:01:29</last_uploaded></row><row _id="120" _uuid="AF21F638-BBB3-4893-BFCC-625F0DF69AD7" _position="120" _address="https://opendata.camden.gov.uk/resource/_5rhh-fxna/120"><election_name>Local Council Elections - 3 May 2018</election_name><polling_district_name>OD</polling_district_name><organisation>Ossulston Tenants and Residents Association Hall</organisation><street>Ossulston Street</street><postcode>NW1 1EU</postcode><ward_name>St Pancras and Somers Town</ward_name><parliamentary_constituency_name>Holborn and St. Pancras</parliamentary_constituency_name><easting>529737</easting><northing>182979</northing><longitude>-0.131057</longitude><latitude>51.530833</latitude><location human_address="{&quot;address&quot;:&quot;&quot;,&quot;city&quot;:&quot;&quot;,&quot;state&quot;:&quot;&quot;,&quot;zip&quot;:&quot;&quot;}" latitude="51.530833" longitude="-0.131057" needs_recoding="false"/><spatial_accuracy>Local Land And Property Gazetteer</spatial_accuracy><socrata_id>50</socrata_id><last_uploaded>2018-01-23T15:01:29</last_uploaded></row></row></response>