<response><row><row _id="row-uc3a~8s4a~s65r" _uuid="00000000-0000-0000-67DB-9EE85418EDD7" _position="0" _address="https://opendata.camden.gov.uk/resource/_5rhh-fxna/row-uc3a~8s4a~s65r"><election_name>European Parliamentary Elections - 23 May 2019</election_name><polling_district_name>AA</polling_district_name><organisation>Burgh House</organisation><street>New End Square</street><postcode>NW3 1LT</postcode><ward_name>Hampstead Town</ward_name><parliamentary_constituency_name>Hampstead and Kilburn</parliamentary_constituency_name><easting>526606</easting><northing>185943</northing><longitude>-0.175067</longitude><latitude>51.558172</latitude><location latitude="51.558172" longitude="-0.175067"/><spatial_accuracy>Local Land And Property Gazetteer</spatial_accuracy><socrata_id>1</socrata_id><last_uploaded>2019-04-23T08:47:58</last_uploaded><:-computed_region_6i9a_26nj>54</:-computed_region_6i9a_26nj><:-computed_region_hxwp_gyfc>8</:-computed_region_hxwp_gyfc></row><row _id="row-k6pm_8k8w-9srx" _uuid="00000000-0000-0000-7DFA-865EC50F8D95" _position="0" _address="https://opendata.camden.gov.uk/resource/_5rhh-fxna/row-k6pm_8k8w-9srx"><election_name>European Parliamentary Elections - 23 May 2019</election_name><polling_district_name>AB</polling_district_name><organisation>Fitzjohn's Primary School</organisation><street>Fitzjohn's Avenue</street><postcode>NW3 6NP</postcode><ward_name>Hampstead Town</ward_name><parliamentary_constituency_name>Hampstead and Kilburn</parliamentary_constituency_name><easting>526614</easting><northing>185439</northing><longitude>-0.175133</longitude><latitude>51.553641</latitude><location latitude="51.553641" longitude="-0.175133"/><spatial_accuracy>Local Land And Property Gazetteer</spatial_accuracy><socrata_id>2</socrata_id><last_uploaded>2019-04-23T08:48:00</last_uploaded><:-computed_region_6i9a_26nj>56</:-computed_region_6i9a_26nj><:-computed_region_hxwp_gyfc>8</:-computed_region_hxwp_gyfc></row><row _id="row-3u5n.r9zh.gcvw" _uuid="00000000-0000-0000-A94D-4CCF0D9EBB1E" _position="0" _address="https://opendata.camden.gov.uk/resource/_5rhh-fxna/row-3u5n.r9zh.gcvw"><election_name>European Parliamentary Elections - 23 May 2019</election_name><polling_district_name>AC</polling_district_name><organisation>Heath Branch Library</organisation><street>Keats Grove</street><postcode>NW3 2RR</postcode><ward_name>Hampstead Town</ward_name><parliamentary_constituency_name>Hampstead and Kilburn</parliamentary_constituency_name><easting>527089</easting><northing>185656</northing><longitude>-0.168207</longitude><latitude>51.555485</latitude><location latitude="51.555485" longitude="-0.168207"/><spatial_accuracy>Local Land And Property Gazetteer</spatial_accuracy><socrata_id>3</socrata_id><last_uploaded>2019-04-23T08:48:00</last_uploaded><:-computed_region_6i9a_26nj>55</:-computed_region_6i9a_26nj><:-computed_region_hxwp_gyfc>8</:-computed_region_hxwp_gyfc></row><row _id="row-2bgc~czhf.9jhd" _uuid="00000000-0000-0000-255E-5FA49AC6C43B" _position="0" _address="https://opendata.camden.gov.uk/resource/_5rhh-fxna/row-2bgc~czhf.9jhd"><election_name>European Parliamentary Elections - 23 May 2019</election_name><polling_district_name>BA</polling_district_name><organisation>Holly Lodge Community Centre</organisation><street>Makepeace Avenue</street><postcode>N6 6HL</postcode><ward_name>Highgate</ward_name><parliamentary_constituency_name>Holborn and St. Pancras</parliamentary_constituency_name><easting>528445</easting><northing>186710</northing><longitude>-0.148274</longitude><latitude>51.56465</latitude><location latitude="51.56465" longitude="-0.148274"/><spatial_accuracy>Local Land And Property Gazetteer</spatial_accuracy><socrata_id>4</socrata_id><last_uploaded>2019-04-23T08:48:00</last_uploaded><:-computed_region_6i9a_26nj>67</:-computed_region_6i9a_26nj><:-computed_region_hxwp_gyfc>10</:-computed_region_hxwp_gyfc></row><row _id="row-3imx_8urp~evfe" _uuid="00000000-0000-0000-1555-5A95DA7BE90D" _position="0" _address="https://opendata.camden.gov.uk/resource/_5rhh-fxna/row-3imx_8urp~evfe"><election_name>European Parliamentary Elections - 23 May 2019</election_name><polling_district_name>BB</polling_district_name><organisation>Highgate Road Chapel</organisation><street>Chetwynd Road</street><postcode>NW5 1BU</postcode><ward_name>Highgate</ward_name><parliamentary_constituency_name>Holborn and St. Pancras</parliamentary_constituency_name><easting>528658</easting><northing>185859</northing><longitude>-0.145514</longitude><latitude>51.556954</latitude><location latitude="51.556954" longitude="-0.145514"/><spatial_accuracy>Local Land And Property Gazetteer</spatial_accuracy><socrata_id>5</socrata_id><last_uploaded>2019-04-23T08:48:00</last_uploaded><:-computed_region_6i9a_26nj>69</:-computed_region_6i9a_26nj><:-computed_region_hxwp_gyfc>10</:-computed_region_hxwp_gyfc></row><row _id="row-phie_cb8r~bgdn" _uuid="00000000-0000-0000-427F-CD58B7C95ADE" _position="0" _address="https://opendata.camden.gov.uk/resource/_5rhh-fxna/row-phie_cb8r~bgdn"><election_name>European Parliamentary Elections - 23 May 2019</election_name><polling_district_name>BC</polling_district_name><organisation>Highgate Library Civic and Cultural Centre</organisation><street>Chester Road</street><postcode>N19 5DH</postcode><ward_name>Highgate</ward_name><parliamentary_constituency_name>Holborn and St. Pancras</parliamentary_constituency_name><easting>528739</easting><northing>186620</northing><longitude>-0.144068</longitude><latitude>51.563774</latitude><location latitude="51.563774" longitude="-0.144068"/><spatial_accuracy>Local Land And Property Gazetteer</spatial_accuracy><socrata_id>6</socrata_id><last_uploaded>2019-04-23T08:48:00</last_uploaded><:-computed_region_6i9a_26nj>67</:-computed_region_6i9a_26nj><:-computed_region_hxwp_gyfc>10</:-computed_region_hxwp_gyfc></row><row _id="row-m23g.mz9j-27u7" _uuid="00000000-0000-0000-9226-CE21467B750A" _position="0" _address="https://opendata.camden.gov.uk/resource/_5rhh-fxna/row-m23g.mz9j-27u7"><election_name>European Parliamentary Elections - 23 May 2019</election_name><polling_district_name>CA</polling_district_name><organisation>St Luke's Church of England School</organisation><street>Kidderpore Avenue</street><postcode>NW3 7SU</postcode><ward_name>Frognal and Fitzjohns</ward_name><parliamentary_constituency_name>Hampstead and Kilburn</parliamentary_constituency_name><easting>525269</easting><northing>185902</northing><longitude>-0.194358</longitude><latitude>51.558102</latitude><location latitude="51.558102" longitude="-0.194358"/><spatial_accuracy>Local Land And Property Gazetteer</spatial_accuracy><socrata_id>7</socrata_id><last_uploaded>2019-04-23T08:48:00</last_uploaded><:-computed_region_6i9a_26nj>37</:-computed_region_6i9a_26nj><:-computed_region_hxwp_gyfc>6</:-computed_region_hxwp_gyfc></row><row _id="row-i4q3_muxc~7arb" _uuid="00000000-0000-0000-CA7B-282F956825C9" _position="0" _address="https://opendata.camden.gov.uk/resource/_5rhh-fxna/row-i4q3_muxc~7arb"><election_name>European Parliamentary Elections - 23 May 2019</election_name><polling_district_name>CB</polling_district_name><organisation>St Luke's Church of England School</organisation><street>Kidderpore Avenue</street><postcode>NW3 7SU</postcode><ward_name>Frognal and Fitzjohns</ward_name><parliamentary_constituency_name>Hampstead and Kilburn</parliamentary_constituency_name><easting>525269</easting><northing>185902</northing><longitude>-0.194358</longitude><latitude>51.558102</latitude><location latitude="51.558102" longitude="-0.194358"/><spatial_accuracy>Local Land And Property Gazetteer</spatial_accuracy><socrata_id>8</socrata_id><last_uploaded>2019-04-23T08:48:00</last_uploaded><:-computed_region_6i9a_26nj>37</:-computed_region_6i9a_26nj><:-computed_region_hxwp_gyfc>6</:-computed_region_hxwp_gyfc></row><row _id="row-56qm_9eve.7igy" _uuid="00000000-0000-0000-66BD-CFEFE3D68685" _position="0" _address="https://opendata.camden.gov.uk/resource/_5rhh-fxna/row-56qm_9eve.7igy"><election_name>European Parliamentary Elections - 23 May 2019</election_name><polling_district_name>CC</polling_district_name><organisation>Holy Trinity Church Hall</organisation><street>Sumpter Close</street><postcode>NW3 5HR</postcode><ward_name>Frognal and Fitzjohns</ward_name><parliamentary_constituency_name>Hampstead and Kilburn</parliamentary_constituency_name><easting>526371</easting><northing>184697</northing><longitude>-0.178903</longitude><latitude>51.547027</latitude><location latitude="51.547027" longitude="-0.178903"/><spatial_accuracy>Local Land And Property Gazetteer</spatial_accuracy><socrata_id>9</socrata_id><last_uploaded>2019-04-23T08:48:00</last_uploaded><:-computed_region_6i9a_26nj>42</:-computed_region_6i9a_26nj><:-computed_region_hxwp_gyfc>6</:-computed_region_hxwp_gyfc></row><row _id="row-zhje-j5ws.8ruu" _uuid="00000000-0000-0000-DB96-6AC4F682A9D7" _position="0" _address="https://opendata.camden.gov.uk/resource/_5rhh-fxna/row-zhje-j5ws.8ruu"><election_name>European Parliamentary Elections - 23 May 2019</election_name><polling_district_name>DA</polling_district_name><organisation>Templar House Social Hall</organisation><street>Shoot-Up Hill</street><postcode>NW2 3TD</postcode><ward_name>Fortune Green</ward_name><parliamentary_constituency_name>Hampstead and Kilburn</parliamentary_constituency_name><easting>524583</easting><northing>184805</northing><longitude>-0.204637</longitude><latitude>51.548395</latitude><location latitude="51.548395" longitude="-0.204637"/><spatial_accuracy>Local Land And Property Gazetteer</spatial_accuracy><socrata_id>10</socrata_id><last_uploaded>2019-04-23T08:48:00</last_uploaded><:-computed_region_6i9a_26nj>35</:-computed_region_6i9a_26nj><:-computed_region_hxwp_gyfc>5</:-computed_region_hxwp_gyfc></row><row _id="row-27za~zc7w_dhtg" _uuid="00000000-0000-0000-E8A8-9C18C09319F8" _position="0" _address="https://opendata.camden.gov.uk/resource/_5rhh-fxna/row-27za~zc7w_dhtg"><election_name>European Parliamentary Elections - 23 May 2019</election_name><polling_district_name>DB</polling_district_name><organisation>Beckford Primary School</organisation><street>Dornfell Street</street><postcode>NW6 1QL</postcode><ward_name>Fortune Green</ward_name><parliamentary_constituency_name>Hampstead and Kilburn</parliamentary_constituency_name><easting>524934</easting><northing>185067</northing><longitude>-0.199484</longitude><latitude>51.550672</latitude><location latitude="51.550672" longitude="-0.199484"/><spatial_accuracy>Local Land And Property Gazetteer</spatial_accuracy><socrata_id>11</socrata_id><last_uploaded>2019-04-23T08:48:00</last_uploaded><:-computed_region_6i9a_26nj>32</:-computed_region_6i9a_26nj><:-computed_region_hxwp_gyfc>5</:-computed_region_hxwp_gyfc></row><row _id="row-7rmb-y74c_kk7z" _uuid="00000000-0000-0000-BA25-9257B73B4B03" _position="0" _address="https://opendata.camden.gov.uk/resource/_5rhh-fxna/row-7rmb-y74c_kk7z"><election_name>European Parliamentary Elections - 23 May 2019</election_name><polling_district_name>DC</polling_district_name><organisation>Emmanuel Church</organisation><street>Lyncroft Gardens</street><postcode>NW6 1JU</postcode><ward_name>Fortune Green</ward_name><parliamentary_constituency_name>Hampstead and Kilburn</parliamentary_constituency_name><easting>525413</easting><northing>185302</northing><longitude>-0.192496</longitude><latitude>51.552678</latitude><location latitude="51.552678" longitude="-0.192496"/><spatial_accuracy>Local Land And Property Gazetteer</spatial_accuracy><socrata_id>12</socrata_id><last_uploaded>2019-04-23T08:48:00</last_uploaded><:-computed_region_6i9a_26nj>33</:-computed_region_6i9a_26nj><:-computed_region_hxwp_gyfc>5</:-computed_region_hxwp_gyfc></row><row _id="row-h9tx~uq75_kpmc" _uuid="00000000-0000-0000-A7A1-A17B4AB1208C" _position="0" _address="https://opendata.camden.gov.uk/resource/_5rhh-fxna/row-h9tx~uq75_kpmc"><election_name>European Parliamentary Elections - 23 May 2019</election_name><polling_district_name>EA</polling_district_name><organisation>West Hampstead Branch Library</organisation><street>Dennington Park Road</street><postcode>NW6 1AU</postcode><ward_name>West Hampstead</ward_name><parliamentary_constituency_name>Hampstead and Kilburn</parliamentary_constituency_name><easting>525481</easting><northing>185041</northing><longitude>-0.191609</longitude><latitude>51.550317</latitude><location latitude="51.550317" longitude="-0.191609"/><spatial_accuracy>Local Land And Property Gazetteer</spatial_accuracy><socrata_id>13</socrata_id><last_uploaded>2019-04-23T08:48:00</last_uploaded><:-computed_region_6i9a_26nj>128</:-computed_region_6i9a_26nj><:-computed_region_hxwp_gyfc>18</:-computed_region_hxwp_gyfc></row><row _id="row-2xvi-eq9a~hmr8" _uuid="00000000-0000-0000-B780-C2F1940F3FC4" _position="0" _address="https://opendata.camden.gov.uk/resource/_5rhh-fxna/row-2xvi-eq9a~hmr8"><election_name>European Parliamentary Elections - 23 May 2019</election_name><polling_district_name>EB</polling_district_name><organisation>Lymington Road Residents Association Hall</organisation><street>Dresden Close</street><postcode>NW6 1XP</postcode><ward_name>West Hampstead</ward_name><parliamentary_constituency_name>Hampstead and Kilburn</parliamentary_constituency_name><easting>525982</easting><northing>185031</northing><longitude>-0.18439</longitude><latitude>51.550116</latitude><location latitude="51.550116" longitude="-0.18439"/><spatial_accuracy>Local Land And Property Gazetteer</spatial_accuracy><socrata_id>14</socrata_id><last_uploaded>2019-04-23T08:48:00</last_uploaded><:-computed_region_6i9a_26nj>131</:-computed_region_6i9a_26nj><:-computed_region_hxwp_gyfc>18</:-computed_region_hxwp_gyfc></row><row _id="row-2y5s.e9bf~wy5j" _uuid="00000000-0000-0000-7F2C-66B9943E24D9" _position="0" _address="https://opendata.camden.gov.uk/resource/_5rhh-fxna/row-2y5s.e9bf~wy5j"><election_name>European Parliamentary Elections - 23 May 2019</election_name><polling_district_name>EC</polling_district_name><organisation>Brondesbury Christian Centre</organisation><street>Iverson Road</street><postcode>NW6 2QT</postcode><ward_name>West Hampstead</ward_name><parliamentary_constituency_name>Hampstead and Kilburn</parliamentary_constituency_name><easting>524791</easting><northing>184564</northing><longitude>-0.201724</longitude><latitude>51.546183</latitude><location latitude="51.546183" longitude="-0.201724"/><spatial_accuracy>Local Land And Property Gazetteer</spatial_accuracy><socrata_id>15</socrata_id><last_uploaded>2019-04-23T08:48:00</last_uploaded><:-computed_region_6i9a_26nj>133</:-computed_region_6i9a_26nj><:-computed_region_hxwp_gyfc>18</:-computed_region_hxwp_gyfc></row><row _id="row-igpw_drmd-27pg" _uuid="00000000-0000-0000-1229-003A8E457897" _position="0" _address="https://opendata.camden.gov.uk/resource/_5rhh-fxna/row-igpw_drmd-27pg"><election_name>European Parliamentary Elections - 23 May 2019</election_name><polling_district_name>ED</polling_district_name><organisation>St James Hall</organisation><street>Sherriff Road</street><postcode>NW6 2AP</postcode><ward_name>West Hampstead</ward_name><parliamentary_constituency_name>Hampstead and Kilburn</parliamentary_constituency_name><easting>525449</easting><northing>184541</northing><longitude>-0.192248</longitude><latitude>51.545831</latitude><location latitude="51.545831" longitude="-0.192248"/><spatial_accuracy>Local Land And Property Gazetteer</spatial_accuracy><socrata_id>16</socrata_id><last_uploaded>2019-04-23T08:48:00</last_uploaded><:-computed_region_6i9a_26nj>132</:-computed_region_6i9a_26nj><:-computed_region_hxwp_gyfc>18</:-computed_region_hxwp_gyfc></row><row _id="row-ii2i_48uu~xpn7" _uuid="00000000-0000-0000-0C67-39A2A2502811" _position="0" _address="https://opendata.camden.gov.uk/resource/_5rhh-fxna/row-ii2i_48uu~xpn7"><election_name>European Parliamentary Elections - 23 May 2019</election_name><polling_district_name>FA</polling_district_name><organisation>Kingsgate Community Centre</organisation><street>Kingsgate Road</street><postcode>NW6 2JH</postcode><ward_name>Kilburn</ward_name><parliamentary_constituency_name>Hampstead and Kilburn</parliamentary_constituency_name><easting>525177</easting><northing>184362</northing><longitude>-0.196232</longitude><latitude>51.544282</latitude><location latitude="51.544282" longitude="-0.196232"/><spatial_accuracy>Local Land And Property Gazetteer</spatial_accuracy><socrata_id>17</socrata_id><last_uploaded>2019-04-23T08:48:00</last_uploaded><:-computed_region_6i9a_26nj>91</:-computed_region_6i9a_26nj><:-computed_region_hxwp_gyfc>13</:-computed_region_hxwp_gyfc></row><row _id="row-yzdq~ibjx_63hj" _uuid="00000000-0000-0000-1557-FAE1A10410DF" _position="0" _address="https://opendata.camden.gov.uk/resource/_5rhh-fxna/row-yzdq~ibjx_63hj"><election_name>European Parliamentary Elections - 23 May 2019</election_name><polling_district_name>FB</polling_district_name><organisation>Abbey Community Centre</organisation><street>Belsize Road</street><postcode>NW6 4DJ</postcode><ward_name>Kilburn</ward_name><parliamentary_constituency_name>Hampstead and Kilburn</parliamentary_constituency_name><easting>525714</easting><northing>183841</northing><longitude>-0.188678</longitude><latitude>51.539481</latitude><location latitude="51.539481" longitude="-0.188678"/><spatial_accuracy>Local Land And Property Gazetteer</spatial_accuracy><socrata_id>18</socrata_id><last_uploaded>2019-04-23T08:48:00</last_uploaded><:-computed_region_6i9a_26nj>92</:-computed_region_6i9a_26nj><:-computed_region_hxwp_gyfc>13</:-computed_region_hxwp_gyfc></row><row _id="row-mq84~npqg-kxh8" _uuid="00000000-0000-0000-ADB4-5EEF6B5FA87B" _position="0" _address="https://opendata.camden.gov.uk/resource/_5rhh-fxna/row-mq84~npqg-kxh8"><election_name>European Parliamentary Elections - 23 May 2019</election_name><polling_district_name>FC</polling_district_name><organisation>SHELL Centre 2</organisation><street>Boundary Road</street><postcode>NW8 0HU</postcode><ward_name>Kilburn</ward_name><parliamentary_constituency_name>Hampstead and Kilburn</parliamentary_constituency_name><easting>526072</easting><northing>183789</northing><longitude>-0.183538</longitude><latitude>51.538934</latitude><location latitude="51.538934" longitude="-0.183538"/><spatial_accuracy>Local Land And Property Gazetteer</spatial_accuracy><socrata_id>19</socrata_id><last_uploaded>2019-04-23T08:48:00</last_uploaded><:-computed_region_6i9a_26nj>93</:-computed_region_6i9a_26nj><:-computed_region_hxwp_gyfc>13</:-computed_region_hxwp_gyfc></row><row _id="row-9du6.jbqp.sk9c" _uuid="00000000-0000-0000-AC78-665577AEEEEF" _position="0" _address="https://opendata.camden.gov.uk/resource/_5rhh-fxna/row-9du6.jbqp.sk9c"><election_name>European Parliamentary Elections - 23 May 2019</election_name><polling_district_name>FD</polling_district_name><organisation>Mortimer Crescent Tenants and Residents Association Hall</organisation><street>Mortimer Crescent</street><postcode>NW6 5UR</postcode><ward_name>Kilburn</ward_name><parliamentary_constituency_name>Hampstead and Kilburn</parliamentary_constituency_name><easting>525733</easting><northing>183519</northing><longitude>-0.18852</longitude><latitude>51.536583</latitude><location latitude="51.536583" longitude="-0.18852"/><spatial_accuracy>Local Land And Property Gazetteer</spatial_accuracy><socrata_id>20</socrata_id><last_uploaded>2019-04-23T08:48:00</last_uploaded><:-computed_region_6i9a_26nj>88</:-computed_region_6i9a_26nj><:-computed_region_hxwp_gyfc>13</:-computed_region_hxwp_gyfc></row><row _id="row-nnbu-b7ud_kjdu" _uuid="00000000-0000-0000-397F-FD36B531C009" _position="0" _address="https://opendata.camden.gov.uk/resource/_5rhh-fxna/row-nnbu-b7ud_kjdu"><election_name>European Parliamentary Elections - 23 May 2019</election_name><polling_district_name>GA</polling_district_name><organisation>St Marys Community Hall</organisation><street>Abbey Road</street><postcode>NW6 4SR</postcode><ward_name>Swiss Cottage</ward_name><parliamentary_constituency_name>Hampstead and Kilburn</parliamentary_constituency_name><easting>525712</easting><northing>184035</northing><longitude>-0.188638</longitude><latitude>51.541225</latitude><location latitude="51.541225" longitude="-0.188638"/><spatial_accuracy>Local Land And Property Gazetteer</spatial_accuracy><socrata_id>21</socrata_id><last_uploaded>2019-04-23T08:48:00</last_uploaded><:-computed_region_6i9a_26nj>124</:-computed_region_6i9a_26nj><:-computed_region_hxwp_gyfc>17</:-computed_region_hxwp_gyfc></row><row _id="row-ruig_xejx_vi3j" _uuid="00000000-0000-0000-0117-5DB17F0869C6" _position="0" _address="https://opendata.camden.gov.uk/resource/_5rhh-fxna/row-ruig_xejx_vi3j"><election_name>European Parliamentary Elections - 23 May 2019</election_name><polling_district_name>GB</polling_district_name><organisation>Crossfield Day Centre</organisation><street>Fairhazel Gardens</street><postcode>NW6 3SG</postcode><ward_name>Swiss Cottage</ward_name><parliamentary_constituency_name>Hampstead and Kilburn</parliamentary_constituency_name><easting>526259</easting><northing>184156</northing><longitude>-0.180711</longitude><latitude>51.54219</latitude><location latitude="51.54219" longitude="-0.180711"/><spatial_accuracy>Local Land And Property Gazetteer</spatial_accuracy><socrata_id>22</socrata_id><last_uploaded>2019-04-23T08:48:00</last_uploaded><:-computed_region_6i9a_26nj>121</:-computed_region_6i9a_26nj><:-computed_region_hxwp_gyfc>17</:-computed_region_hxwp_gyfc></row><row _id="row-r275_db9m.yyiu" _uuid="00000000-0000-0000-5236-C06C5E75240B" _position="0" _address="https://opendata.camden.gov.uk/resource/_5rhh-fxna/row-r275_db9m.yyiu"><election_name>European Parliamentary Elections - 23 May 2019</election_name><polling_district_name>GC</polling_district_name><organisation>Swiss Cottage Library (Glass Foyer)</organisation><street>Avenue Road</street><postcode>NW3 3HA</postcode><ward_name>Swiss Cottage</ward_name><parliamentary_constituency_name>Hampstead and Kilburn</parliamentary_constituency_name><easting>526779</easting><northing>184180</northing><longitude>-0.173208</longitude><latitude>51.54229</latitude><location latitude="51.54229" longitude="-0.173208"/><spatial_accuracy>Local Land And Property Gazetteer</spatial_accuracy><socrata_id>23</socrata_id><last_uploaded>2019-04-23T08:48:00</last_uploaded><:-computed_region_6i9a_26nj>122</:-computed_region_6i9a_26nj><:-computed_region_hxwp_gyfc>17</:-computed_region_hxwp_gyfc></row><row _id="row-dtzz_n82b~3bpj" _uuid="00000000-0000-0000-9C94-F36EB35A37AE" _position="0" _address="https://opendata.camden.gov.uk/resource/_5rhh-fxna/row-dtzz_n82b~3bpj"><election_name>European Parliamentary Elections - 23 May 2019</election_name><polling_district_name>HA</polling_district_name><organisation>Belsize Community Library</organisation><street>Antrim Road</street><postcode>NW3 4XN</postcode><ward_name>Belsize</ward_name><parliamentary_constituency_name>Hampstead and Kilburn</parliamentary_constituency_name><easting>527523</easting><northing>184823</northing><longitude>-0.162252</longitude><latitude>51.547901</latitude><location latitude="51.547901" longitude="-0.162252"/><spatial_accuracy>Local Land And Property Gazetteer</spatial_accuracy><socrata_id>24</socrata_id><last_uploaded>2019-04-23T08:48:00</last_uploaded><:-computed_region_6i9a_26nj>2</:-computed_region_6i9a_26nj><:-computed_region_hxwp_gyfc>1</:-computed_region_hxwp_gyfc></row><row _id="row-rwms.qpfp~kssd" _uuid="00000000-0000-0000-E08C-CA6181734FF5" _position="0" _address="https://opendata.camden.gov.uk/resource/_5rhh-fxna/row-rwms.qpfp~kssd"><election_name>European Parliamentary Elections - 23 May 2019</election_name><polling_district_name>HB</polling_district_name><organisation>Belsize Community Library</organisation><street>Antrim Road</street><postcode>NW3 4XN</postcode><ward_name>Belsize</ward_name><parliamentary_constituency_name>Hampstead and Kilburn</parliamentary_constituency_name><easting>527523</easting><northing>184823</northing><longitude>-0.162252</longitude><latitude>51.547901</latitude><location latitude="51.547901" longitude="-0.162252"/><spatial_accuracy>Local Land And Property Gazetteer</spatial_accuracy><socrata_id>25</socrata_id><last_uploaded>2019-04-23T08:48:00</last_uploaded><:-computed_region_6i9a_26nj>2</:-computed_region_6i9a_26nj><:-computed_region_hxwp_gyfc>1</:-computed_region_hxwp_gyfc></row><row _id="row-hfkk-5k2n-sgc5" _uuid="00000000-0000-0000-8BBC-2F53E2D33EE6" _position="0" _address="https://opendata.camden.gov.uk/resource/_5rhh-fxna/row-hfkk-5k2n-sgc5"><election_name>European Parliamentary Elections - 23 May 2019</election_name><polling_district_name>HC</polling_district_name><organisation>Bray Tenants Hall</organisation><street>Fellows Road</street><postcode>NW3 3JX</postcode><ward_name>Belsize</ward_name><parliamentary_constituency_name>Hampstead and Kilburn</parliamentary_constituency_name><easting>527247</easting><northing>184337</northing><longitude>-0.166406</longitude><latitude>51.543595</latitude><location latitude="51.543595" longitude="-0.166406"/><spatial_accuracy>Local Land And Property Gazetteer</spatial_accuracy><socrata_id>26</socrata_id><last_uploaded>2019-04-23T08:48:00</last_uploaded><:-computed_region_6i9a_26nj>5</:-computed_region_6i9a_26nj><:-computed_region_hxwp_gyfc>1</:-computed_region_hxwp_gyfc></row><row _id="row-88tc~q3s9_uvax" _uuid="00000000-0000-0000-5C45-17B8832F70EE" _position="0" _address="https://opendata.camden.gov.uk/resource/_5rhh-fxna/row-88tc~q3s9_uvax"><election_name>European Parliamentary Elections - 23 May 2019</election_name><polling_district_name>IA</polling_district_name><organisation>Gospel Oak Methodist Church</organisation><street>Agincourt Road</street><postcode>NW3 2NT</postcode><ward_name>Gospel Oak</ward_name><parliamentary_constituency_name>Holborn and St. Pancras</parliamentary_constituency_name><easting>527746</easting><northing>185495</northing><longitude>-0.158794</longitude><latitude>51.55389</latitude><location latitude="51.55389" longitude="-0.158794"/><spatial_accuracy>Local Land And Property Gazetteer</spatial_accuracy><socrata_id>27</socrata_id><last_uploaded>2019-04-23T08:48:00</last_uploaded><:-computed_region_6i9a_26nj>47</:-computed_region_6i9a_26nj><:-computed_region_hxwp_gyfc>7</:-computed_region_hxwp_gyfc></row><row _id="row-azrb_x7p9~jbfn" _uuid="00000000-0000-0000-1533-6C65AF34021F" _position="0" _address="https://opendata.camden.gov.uk/resource/_5rhh-fxna/row-azrb_x7p9~jbfn"><election_name>European Parliamentary Elections - 23 May 2019</election_name><polling_district_name>IB</polling_district_name><organisation>Kiln Place Tenants Association Hall</organisation><street>Kiln Place</street><postcode>NW5 4AP</postcode><ward_name>Gospel Oak</ward_name><parliamentary_constituency_name>Holborn and St. Pancras</parliamentary_constituency_name><easting>528276</easting><northing>185519</northing><longitude>-0.151145</longitude><latitude>51.553985</latitude><location latitude="51.553985" longitude="-0.151145"/><spatial_accuracy>Local Land And Property Gazetteer</spatial_accuracy><socrata_id>28</socrata_id><last_uploaded>2019-04-23T08:48:00</last_uploaded><:-computed_region_6i9a_26nj>48</:-computed_region_6i9a_26nj><:-computed_region_hxwp_gyfc>7</:-computed_region_hxwp_gyfc></row><row _id="row-gv26.yfiz.83qw" _uuid="00000000-0000-0000-7448-CF690AB29E34" _position="0" _address="https://opendata.camden.gov.uk/resource/_5rhh-fxna/row-gv26.yfiz.83qw"><election_name>European Parliamentary Elections - 23 May 2019</election_name><polling_district_name>IC</polling_district_name><organisation>Queens Crescent Community Centre</organisation><street>Ashdown Crescent</street><postcode>NW5 4QE</postcode><ward_name>Gospel Oak</ward_name><parliamentary_constituency_name>Holborn and St. Pancras</parliamentary_constituency_name><easting>528214</easting><northing>185089</northing><longitude>-0.152195</longitude><latitude>51.550135</latitude><location latitude="51.550135" longitude="-0.152195"/><spatial_accuracy>Local Land And Property Gazetteer</spatial_accuracy><socrata_id>29</socrata_id><last_uploaded>2019-04-23T08:48:00</last_uploaded><:-computed_region_6i9a_26nj>50</:-computed_region_6i9a_26nj><:-computed_region_hxwp_gyfc>7</:-computed_region_hxwp_gyfc></row><row _id="row-59ns.45hs_nxj5" _uuid="00000000-0000-0000-0361-F2F7E9154EBA" _position="0" _address="https://opendata.camden.gov.uk/resource/_5rhh-fxna/row-59ns.45hs_nxj5"><election_name>European Parliamentary Elections - 23 May 2019</election_name><polling_district_name>JA</polling_district_name><organisation>Rainbow Nursery</organisation><street>Lupton Street</street><postcode>NW5 2JB</postcode><ward_name>Kentish Town</ward_name><parliamentary_constituency_name>Holborn and St. Pancras</parliamentary_constituency_name><easting>529179</easting><northing>185588</northing><longitude>-0.138102</longitude><latitude>51.554399</latitude><location latitude="51.554399" longitude="-0.138102"/><spatial_accuracy>Local Land And Property Gazetteer</spatial_accuracy><socrata_id>30</socrata_id><last_uploaded>2019-04-23T08:48:00</last_uploaded><:-computed_region_6i9a_26nj>82</:-computed_region_6i9a_26nj><:-computed_region_hxwp_gyfc>12</:-computed_region_hxwp_gyfc></row><row _id="row-7a4h~gw97-69k2" _uuid="00000000-0000-0000-4623-69C0551C0B13" _position="0" _address="https://opendata.camden.gov.uk/resource/_5rhh-fxna/row-7a4h~gw97-69k2"><election_name>European Parliamentary Elections - 23 May 2019</election_name><polling_district_name>JB</polling_district_name><organisation>Kentish Town Congregational Church</organisation><street>Kelly Street</street><postcode>NW1 8PH</postcode><ward_name>Kentish Town</ward_name><parliamentary_constituency_name>Holborn and St. Pancras</parliamentary_constituency_name><easting>528859</easting><northing>184651</northing><longitude>-0.143058</longitude><latitude>51.546052</latitude><location latitude="51.546052" longitude="-0.143058"/><spatial_accuracy>Local Land And Property Gazetteer</spatial_accuracy><socrata_id>31</socrata_id><last_uploaded>2019-04-23T08:48:00</last_uploaded><:-computed_region_6i9a_26nj>86</:-computed_region_6i9a_26nj><:-computed_region_hxwp_gyfc>12</:-computed_region_hxwp_gyfc></row><row _id="row-cn7d~5a2w~jrv8" _uuid="00000000-0000-0000-6027-44A77FA13FBE" _position="0" _address="https://opendata.camden.gov.uk/resource/_5rhh-fxna/row-cn7d~5a2w~jrv8"><election_name>European Parliamentary Elections - 23 May 2019</election_name><polling_district_name>JC</polling_district_name><organisation>Kentish Town Primary School</organisation><street>Islip Street</street><postcode>NW5 2TU</postcode><ward_name>Kentish Town</ward_name><parliamentary_constituency_name>Holborn and St. Pancras</parliamentary_constituency_name><easting>529113</easting><northing>185066</northing><longitude>-0.139245</longitude><latitude>51.549723</latitude><location latitude="51.549723" longitude="-0.139245"/><spatial_accuracy>Local Land And Property Gazetteer</spatial_accuracy><socrata_id>32</socrata_id><last_uploaded>2019-04-23T08:48:00</last_uploaded><:-computed_region_6i9a_26nj>80</:-computed_region_6i9a_26nj><:-computed_region_hxwp_gyfc>12</:-computed_region_hxwp_gyfc></row><row _id="row-eax7~i2bn.qa4x" _uuid="00000000-0000-0000-E448-349DD2FF48B8" _position="0" _address="https://opendata.camden.gov.uk/resource/_5rhh-fxna/row-eax7~i2bn.qa4x"><election_name>European Parliamentary Elections - 23 May 2019</election_name><polling_district_name>KA</polling_district_name><organisation>Kentish Town Health Centre</organisation><street>Bartholomew Road</street><postcode>NW5 2BX</postcode><ward_name>Cantelowes</ward_name><parliamentary_constituency_name>Holborn and St. Pancras</parliamentary_constituency_name><easting>529075</easting><northing>184696</northing><longitude>-0.139929</longitude><latitude>51.546407</latitude><location latitude="51.546407" longitude="-0.139929"/><spatial_accuracy>Local Land And Property Gazetteer</spatial_accuracy><socrata_id>33</socrata_id><last_uploaded>2019-04-23T08:48:00</last_uploaded><:-computed_region_6i9a_26nj>25</:-computed_region_6i9a_26nj><:-computed_region_hxwp_gyfc>4</:-computed_region_hxwp_gyfc></row><row _id="row-s4bf~75k2.jrdk" _uuid="00000000-0000-0000-A39A-4F2A8145BA3D" _position="0" _address="https://opendata.camden.gov.uk/resource/_5rhh-fxna/row-s4bf~75k2.jrdk"><election_name>European Parliamentary Elections - 23 May 2019</election_name><polling_district_name>KB</polling_district_name><organisation>The Irish Centre</organisation><street>Camden Square</street><postcode>NW1 9XA</postcode><ward_name>Cantelowes</ward_name><parliamentary_constituency_name>Holborn and St. Pancras</parliamentary_constituency_name><easting>529617</easting><northing>184415</northing><longitude>-0.13222</longitude><latitude>51.543758</latitude><location latitude="51.543758" longitude="-0.13222"/><spatial_accuracy>Local Land And Property Gazetteer</spatial_accuracy><socrata_id>34</socrata_id><last_uploaded>2019-04-23T08:48:00</last_uploaded><:-computed_region_6i9a_26nj>24</:-computed_region_6i9a_26nj><:-computed_region_hxwp_gyfc>4</:-computed_region_hxwp_gyfc></row><row _id="row-ipkv.5sk7.dkvi" _uuid="00000000-0000-0000-8EF8-ADC2D8B14FD3" _position="0" _address="https://opendata.camden.gov.uk/resource/_5rhh-fxna/row-ipkv.5sk7.dkvi"><election_name>European Parliamentary Elections - 23 May 2019</election_name><polling_district_name>KC</polling_district_name><organisation>Maiden Lane Community Centre</organisation><street>St Paul's Crescent</street><postcode>NW1 9XZ</postcode><ward_name>Cantelowes</ward_name><parliamentary_constituency_name>Holborn and St. Pancras</parliamentary_constituency_name><easting>529860</easting><northing>184152</northing><longitude>-0.128815</longitude><latitude>51.541338</latitude><location latitude="51.541338" longitude="-0.128815"/><spatial_accuracy>Local Land And Property Gazetteer</spatial_accuracy><socrata_id>35</socrata_id><last_uploaded>2019-04-23T08:48:00</last_uploaded><:-computed_region_6i9a_26nj>27</:-computed_region_6i9a_26nj><:-computed_region_hxwp_gyfc>4</:-computed_region_hxwp_gyfc></row><row _id="row-sncj~brhy.qw24" _uuid="00000000-0000-0000-9F6E-32B80C0ED4E0" _position="0" _address="https://opendata.camden.gov.uk/resource/_5rhh-fxna/row-sncj~brhy.qw24"><election_name>European Parliamentary Elections - 23 May 2019</election_name><polling_district_name>LA</polling_district_name><organisation>Maitland Park Gymnasium</organisation><street>Maitland Park Villas</street><postcode>NW3 2EH</postcode><ward_name>Haverstock</ward_name><parliamentary_constituency_name>Holborn and St. Pancras</parliamentary_constituency_name><easting>527835</easting><northing>184912</northing><longitude>-0.157723</longitude><latitude>51.54863</latitude><location latitude="51.54863" longitude="-0.157723"/><spatial_accuracy>Local Land And Property Gazetteer</spatial_accuracy><socrata_id>36</socrata_id><last_uploaded>2019-04-23T08:48:00</last_uploaded><:-computed_region_6i9a_26nj>61</:-computed_region_6i9a_26nj><:-computed_region_hxwp_gyfc>9</:-computed_region_hxwp_gyfc></row><row _id="row-dtm9-mkz6~w7q5" _uuid="00000000-0000-0000-A6FD-861A37A609BF" _position="0" _address="https://opendata.camden.gov.uk/resource/_5rhh-fxna/row-dtm9-mkz6~w7q5"><election_name>European Parliamentary Elections - 23 May 2019</election_name><polling_district_name>LB</polling_district_name><organisation>Rhyl Primary School</organisation><street>Rhyl Street</street><postcode>NW5 3HB</postcode><ward_name>Haverstock</ward_name><parliamentary_constituency_name>Holborn and St. Pancras</parliamentary_constituency_name><easting>528335</easting><northing>184803</northing><longitude>-0.150556</longitude><latitude>51.547537</latitude><location latitude="51.547537" longitude="-0.150556"/><spatial_accuracy>Local Land And Property Gazetteer</spatial_accuracy><socrata_id>37</socrata_id><last_uploaded>2019-04-23T08:48:00</last_uploaded><:-computed_region_6i9a_26nj>59</:-computed_region_6i9a_26nj><:-computed_region_hxwp_gyfc>9</:-computed_region_hxwp_gyfc></row><row _id="row-pg9u~93rz~gy9h" _uuid="00000000-0000-0000-38A9-2E5882C9B1EA" _position="0" _address="https://opendata.camden.gov.uk/resource/_5rhh-fxna/row-pg9u~93rz~gy9h"><election_name>European Parliamentary Elections - 23 May 2019</election_name><polling_district_name>LC</polling_district_name><organisation>St Saviours Church Hall</organisation><street>Eton Road</street><postcode>NW3 4SU</postcode><ward_name>Haverstock</ward_name><parliamentary_constituency_name>Holborn and St. Pancras</parliamentary_constituency_name><easting>527808</easting><northing>184489</northing><longitude>-0.158266</longitude><latitude>51.544835</latitude><location latitude="51.544835" longitude="-0.158266"/><spatial_accuracy>Local Land And Property Gazetteer</spatial_accuracy><socrata_id>38</socrata_id><last_uploaded>2019-04-23T08:48:00</last_uploaded><:-computed_region_6i9a_26nj>65</:-computed_region_6i9a_26nj><:-computed_region_hxwp_gyfc>9</:-computed_region_hxwp_gyfc></row><row _id="row-r95v.2i4a_vn3e" _uuid="00000000-0000-0000-80D3-8171CC2F3541" _position="0" _address="https://opendata.camden.gov.uk/resource/_5rhh-fxna/row-r95v.2i4a_vn3e"><election_name>European Parliamentary Elections - 23 May 2019</election_name><polling_district_name>LD</polling_district_name><organisation>Salvation Army Centre</organisation><street>Haverstock Hill</street><postcode>NW3 2BL</postcode><ward_name>Haverstock</ward_name><parliamentary_constituency_name>Holborn and St. Pancras</parliamentary_constituency_name><easting>528192</easting><northing>184441</northing><longitude>-0.152749</longitude><latitude>51.544316</latitude><location latitude="51.544316" longitude="-0.152749"/><spatial_accuracy>Local Land And Property Gazetteer</spatial_accuracy><socrata_id>39</socrata_id><last_uploaded>2019-04-23T08:48:00</last_uploaded><:-computed_region_6i9a_26nj>64</:-computed_region_6i9a_26nj><:-computed_region_hxwp_gyfc>9</:-computed_region_hxwp_gyfc></row><row _id="row-j5bs.88c3.88nf" _uuid="00000000-0000-0000-3FE9-30DC7E5FAFED" _position="0" _address="https://opendata.camden.gov.uk/resource/_5rhh-fxna/row-j5bs.88c3.88nf"><election_name>European Parliamentary Elections - 23 May 2019</election_name><polling_district_name>MA</polling_district_name><organisation>Primrose Hill Community Centre</organisation><street>Hopkinson's Place</street><postcode>NW1 8TN</postcode><ward_name>Camden Town with Primrose Hill</ward_name><parliamentary_constituency_name>Holborn and St. Pancras</parliamentary_constituency_name><easting>528021</easting><northing>183970</northing><longitude>-0.155384</longitude><latitude>51.540122</latitude><location latitude="51.540122" longitude="-0.155384"/><spatial_accuracy>Local Land And Property Gazetteer</spatial_accuracy><socrata_id>40</socrata_id><last_uploaded>2019-04-23T08:48:00</last_uploaded><:-computed_region_6i9a_26nj>19</:-computed_region_6i9a_26nj><:-computed_region_hxwp_gyfc>3</:-computed_region_hxwp_gyfc></row><row _id="row-4kfr-58vu.c549" _uuid="00000000-0000-0000-F546-A7FDA2938D8D" _position="0" _address="https://opendata.camden.gov.uk/resource/_5rhh-fxna/row-4kfr-58vu.c549"><election_name>European Parliamentary Elections - 23 May 2019</election_name><polling_district_name>MB</polling_district_name><organisation>The Haven</organisation><street>Castlehaven Road</street><postcode>NW1 8RU</postcode><ward_name>Camden Town with Primrose Hill</ward_name><parliamentary_constituency_name>Holborn and St. Pancras</parliamentary_constituency_name><easting>528721</easting><northing>184283</northing><longitude>-0.145182</longitude><latitude>51.542776</latitude><location latitude="51.542776" longitude="-0.145182"/><spatial_accuracy>Local Land And Property Gazetteer</spatial_accuracy><socrata_id>41</socrata_id><last_uploaded>2019-04-23T08:48:00</last_uploaded><:-computed_region_6i9a_26nj>17</:-computed_region_6i9a_26nj><:-computed_region_hxwp_gyfc>3</:-computed_region_hxwp_gyfc></row><row _id="row-fnmx~yei6-xiqu" _uuid="00000000-0000-0000-CAEF-321FA164DB29" _position="0" _address="https://opendata.camden.gov.uk/resource/_5rhh-fxna/row-fnmx~yei6-xiqu"><election_name>European Parliamentary Elections - 23 May 2019</election_name><polling_district_name>MC</polling_district_name><organisation>The Haven</organisation><street>Castlehaven Road</street><postcode>NW1 8RU</postcode><ward_name>Camden Town with Primrose Hill</ward_name><parliamentary_constituency_name>Holborn and St. Pancras</parliamentary_constituency_name><easting>528721</easting><northing>184283</northing><longitude>-0.145182</longitude><latitude>51.542776</latitude><location latitude="51.542776" longitude="-0.145182"/><spatial_accuracy>Local Land And Property Gazetteer</spatial_accuracy><socrata_id>42</socrata_id><last_uploaded>2019-04-23T08:48:00</last_uploaded><:-computed_region_6i9a_26nj>17</:-computed_region_6i9a_26nj><:-computed_region_hxwp_gyfc>3</:-computed_region_hxwp_gyfc></row><row _id="row-yndu~sbn6-w2g5" _uuid="00000000-0000-0000-01B1-FCEA2BD28FAC" _position="0" _address="https://opendata.camden.gov.uk/resource/_5rhh-fxna/row-yndu~sbn6-w2g5"><election_name>European Parliamentary Elections - 23 May 2019</election_name><polling_district_name>MD</polling_district_name><organisation>Choices</organisation><street>Carol Street</street><postcode>NW1 0HT</postcode><ward_name>Camden Town with Primrose Hill</ward_name><parliamentary_constituency_name>Holborn and St. Pancras</parliamentary_constituency_name><easting>529041</easting><northing>183859</northing><longitude>-0.140725</longitude><latitude>51.538893</latitude><location latitude="51.538893" longitude="-0.140725"/><spatial_accuracy>Local Land And Property Gazetteer</spatial_accuracy><socrata_id>43</socrata_id><last_uploaded>2019-04-23T08:48:00</last_uploaded><:-computed_region_6i9a_26nj>20</:-computed_region_6i9a_26nj><:-computed_region_hxwp_gyfc>3</:-computed_region_hxwp_gyfc></row><row _id="row-8spj_5x45.s8m4" _uuid="00000000-0000-0000-17F4-49659B57B560" _position="0" _address="https://opendata.camden.gov.uk/resource/_5rhh-fxna/row-8spj_5x45.s8m4"><election_name>European Parliamentary Elections - 23 May 2019</election_name><polling_district_name>NA</polling_district_name><organisation>Christ Church C E Primary School</organisation><street>Redhill Street</street><postcode>NW1 4BD</postcode><ward_name>Regent's Park</ward_name><parliamentary_constituency_name>Holborn and St. Pancras</parliamentary_constituency_name><easting>528813</easting><northing>182950</northing><longitude>-0.144344</longitude><latitude>51.530776</latitude><location latitude="51.530776" longitude="-0.144344"/><spatial_accuracy>Local Land And Property Gazetteer</spatial_accuracy><socrata_id>44</socrata_id><last_uploaded>2019-04-23T08:48:00</last_uploaded><:-computed_region_6i9a_26nj>108</:-computed_region_6i9a_26nj><:-computed_region_hxwp_gyfc>15</:-computed_region_hxwp_gyfc></row><row _id="row-gnct_vieh_rn35" _uuid="00000000-0000-0000-9028-ED0E3A87D81B" _position="0" _address="https://opendata.camden.gov.uk/resource/_5rhh-fxna/row-gnct_vieh_rn35"><election_name>European Parliamentary Elections - 23 May 2019</election_name><polling_district_name>NB</polling_district_name><organisation>Samuel Lithgow Youth Centre</organisation><street>Stanhope Street</street><postcode>NW1 3LD</postcode><ward_name>Regent's Park</ward_name><parliamentary_constituency_name>Holborn and St. Pancras</parliamentary_constituency_name><easting>529047</easting><northing>182522</northing><longitude>-0.141129</longitude><latitude>51.526876</latitude><location latitude="51.526876" longitude="-0.141129"/><spatial_accuracy>Local Land And Property Gazetteer</spatial_accuracy><socrata_id>45</socrata_id><last_uploaded>2019-04-23T08:48:00</last_uploaded><:-computed_region_6i9a_26nj>104</:-computed_region_6i9a_26nj><:-computed_region_hxwp_gyfc>15</:-computed_region_hxwp_gyfc></row><row _id="row-zian~eg8k_t2c2" _uuid="00000000-0000-0000-DB74-E0B28D1DD097" _position="0" _address="https://opendata.camden.gov.uk/resource/_5rhh-fxna/row-zian~eg8k_t2c2"><election_name>European Parliamentary Elections - 23 May 2019</election_name><polling_district_name>NC</polling_district_name><organisation>Camden Council</organisation><street>Eversholt Street</street><postcode>NW1 1BD</postcode><ward_name>Regent's Park</ward_name><parliamentary_constituency_name>Holborn and St. Pancras</parliamentary_constituency_name><easting>529261</easting><northing>183348</northing><longitude>-0.137742</longitude><latitude>51.53425</latitude><location latitude="51.53425" longitude="-0.137742"/><spatial_accuracy>Local Land And Property Gazetteer</spatial_accuracy><socrata_id>46</socrata_id><last_uploaded>2019-04-23T08:48:00</last_uploaded><:-computed_region_6i9a_26nj>106</:-computed_region_6i9a_26nj><:-computed_region_hxwp_gyfc>15</:-computed_region_hxwp_gyfc></row><row _id="row-w82u-fbdf.2wjz" _uuid="00000000-0000-0000-3991-A3C8F54564C1" _position="0" _address="https://opendata.camden.gov.uk/resource/_5rhh-fxna/row-w82u-fbdf.2wjz"><election_name>European Parliamentary Elections - 23 May 2019</election_name><polling_district_name>OA</polling_district_name><organisation>Agar Grove TA Lulworth Meeting Room</organisation><street>Wrotham Road</street><postcode>NW1 9SS</postcode><ward_name>St Pancras and Somers Town</ward_name><parliamentary_constituency_name>Holborn and St. Pancras</parliamentary_constituency_name><easting>529554</easting><northing>184206</northing><longitude>-0.133205</longitude><latitude>51.541894</latitude><location latitude="51.541894" longitude="-0.133205"/><spatial_accuracy>Local Land And Property Gazetteer</spatial_accuracy><socrata_id>47</socrata_id><last_uploaded>2019-04-23T08:48:00</last_uploaded><:-computed_region_6i9a_26nj>116</:-computed_region_6i9a_26nj><:-computed_region_hxwp_gyfc>16</:-computed_region_hxwp_gyfc></row><row _id="row-9i9a~cg8t.e2hj" _uuid="00000000-0000-0000-B7E8-6A76CF7B444E" _position="0" _address="https://opendata.camden.gov.uk/resource/_5rhh-fxna/row-9i9a~cg8t.e2hj"><election_name>European Parliamentary Elections - 23 May 2019</election_name><polling_district_name>OB</polling_district_name><organisation>St Pancras Community Centre</organisation><street>Plender Street</street><postcode>NW1 0LB</postcode><ward_name>St Pancras and Somers Town</ward_name><parliamentary_constituency_name>Holborn and St. Pancras</parliamentary_constituency_name><easting>529288</easting><northing>183600</northing><longitude>-0.137261</longitude><latitude>51.536509</latitude><location latitude="51.536509" longitude="-0.137261"/><spatial_accuracy>Local Land And Property Gazetteer</spatial_accuracy><socrata_id>48</socrata_id><last_uploaded>2019-04-23T08:48:00</last_uploaded><:-computed_region_6i9a_26nj>118</:-computed_region_6i9a_26nj><:-computed_region_hxwp_gyfc>16</:-computed_region_hxwp_gyfc></row><row _id="row-kiqx.zz5j-69we" _uuid="00000000-0000-0000-C4E5-477BFF04A0ED" _position="0" _address="https://opendata.camden.gov.uk/resource/_5rhh-fxna/row-kiqx.zz5j-69we"><election_name>European Parliamentary Elections - 23 May 2019</election_name><polling_district_name>OC</polling_district_name><organisation>Godwin and Crowndale Community Hall</organisation><street>Crowndale Road</street><postcode>NW1 1NN</postcode><ward_name>St Pancras and Somers Town</ward_name><parliamentary_constituency_name>Holborn and St. Pancras</parliamentary_constituency_name><easting>529435</easting><northing>183416</northing><longitude>-0.13521</longitude><latitude>51.534821</latitude><location latitude="51.534821" longitude="-0.13521"/><spatial_accuracy>Local Land And Property Gazetteer</spatial_accuracy><socrata_id>49</socrata_id><last_uploaded>2019-04-23T08:48:00</last_uploaded><:-computed_region_6i9a_26nj>111</:-computed_region_6i9a_26nj><:-computed_region_hxwp_gyfc>16</:-computed_region_hxwp_gyfc></row><row _id="row-7gkf.dgnj_rjk8" _uuid="00000000-0000-0000-A677-875642130CB1" _position="0" _address="https://opendata.camden.gov.uk/resource/_5rhh-fxna/row-7gkf.dgnj_rjk8"><election_name>European Parliamentary Elections - 23 May 2019</election_name><polling_district_name>OD</polling_district_name><organisation>Ossulston Tenants and Residents Association Hall</organisation><street>Ossulston Street</street><postcode>NW1 1EU</postcode><ward_name>St Pancras and Somers Town</ward_name><parliamentary_constituency_name>Holborn and St. Pancras</parliamentary_constituency_name><easting>529737</easting><northing>182979</northing><longitude>-0.131019</longitude><latitude>51.530825</latitude><location latitude="51.530825" longitude="-0.131019"/><spatial_accuracy>Local Land And Property Gazetteer</spatial_accuracy><socrata_id>50</socrata_id><last_uploaded>2019-04-23T08:48:00</last_uploaded><:-computed_region_6i9a_26nj>112</:-computed_region_6i9a_26nj><:-computed_region_hxwp_gyfc>16</:-computed_region_hxwp_gyfc></row><row _id="row-t6sn~wvhp.jpuw" _uuid="00000000-0000-0000-7D08-349359319735" _position="0" _address="https://opendata.camden.gov.uk/resource/_5rhh-fxna/row-t6sn~wvhp.jpuw"><election_name>European Parliamentary Elections - 23 May 2019</election_name><polling_district_name>OE</polling_district_name><organisation>N1C Centre</organisation><street>Handyside Street</street><postcode>N1C 4BP</postcode><ward_name>St Pancras and Somers Town</ward_name><parliamentary_constituency_name>Holborn and St. Pancras</parliamentary_constituency_name><easting>529972</easting><northing>183871</northing><longitude>-0.127304</longitude><latitude>51.538787</latitude><location latitude="51.538787" longitude="-0.127304"/><spatial_accuracy>Local Land And Property Gazetteer</spatial_accuracy><socrata_id>51</socrata_id><last_uploaded>2019-04-23T08:48:00</last_uploaded><:-computed_region_6i9a_26nj>112</:-computed_region_6i9a_26nj><:-computed_region_hxwp_gyfc>16</:-computed_region_hxwp_gyfc></row><row _id="row-2tig~xb2f_shqx" _uuid="00000000-0000-0000-A8B5-0E03E256F0E2" _position="0" _address="https://opendata.camden.gov.uk/resource/_5rhh-fxna/row-2tig~xb2f_shqx"><election_name>European Parliamentary Elections - 23 May 2019</election_name><polling_district_name>PA</polling_district_name><organisation>Camden Chinese Community Centre</organisation><street>Tavistock Place</street><postcode>WC1H 9SN</postcode><ward_name>King's Cross</ward_name><parliamentary_constituency_name>Holborn and St. Pancras</parliamentary_constituency_name><easting>530036</easting><northing>182379</northing><longitude>-0.126933</longitude><latitude>51.525364</latitude><location latitude="51.525364" longitude="-0.126933"/><spatial_accuracy>Local Land And Property Gazetteer</spatial_accuracy><socrata_id>52</socrata_id><last_uploaded>2019-04-23T08:48:00</last_uploaded><:-computed_region_6i9a_26nj>102</:-computed_region_6i9a_26nj><:-computed_region_hxwp_gyfc>14</:-computed_region_hxwp_gyfc></row><row _id="row-29wz-7v7u_sfny" _uuid="00000000-0000-0000-D476-4373DAAFF159" _position="0" _address="https://opendata.camden.gov.uk/resource/_5rhh-fxna/row-29wz-7v7u_sfny"><election_name>European Parliamentary Elections - 23 May 2019</election_name><polling_district_name>PB</polling_district_name><organisation>Kings Cross Neighbourhood Community Centre</organisation><street>Argyle Street</street><postcode>WC1H 8EF</postcode><ward_name>King's Cross</ward_name><parliamentary_constituency_name>Holborn and St. Pancras</parliamentary_constituency_name><easting>530153</easting><northing>182764</northing><longitude>-0.125105</longitude><latitude>51.528797</latitude><location latitude="51.528797" longitude="-0.125105"/><spatial_accuracy>Local Land And Property Gazetteer</spatial_accuracy><socrata_id>53</socrata_id><last_uploaded>2019-04-23T08:48:00</last_uploaded><:-computed_region_6i9a_26nj>101</:-computed_region_6i9a_26nj><:-computed_region_hxwp_gyfc>14</:-computed_region_hxwp_gyfc></row><row _id="row-swjh-ikbg.8iuc" _uuid="00000000-0000-0000-DEEF-9220E3A6491D" _position="0" _address="https://opendata.camden.gov.uk/resource/_5rhh-fxna/row-swjh-ikbg.8iuc"><election_name>European Parliamentary Elections - 23 May 2019</election_name><polling_district_name>PC</polling_district_name><organisation>Calthorpe Project</organisation><street>Gray's Inn Road</street><postcode>WC1X 8LH</postcode><ward_name>King's Cross</ward_name><parliamentary_constituency_name>Holborn and St. Pancras</parliamentary_constituency_name><easting>530678</easting><northing>182585</northing><longitude>-0.117607</longitude><latitude>51.527067</latitude><location latitude="51.527067" longitude="-0.117607"/><spatial_accuracy>Local Land And Property Gazetteer</spatial_accuracy><socrata_id>54</socrata_id><last_uploaded>2019-04-23T08:48:00</last_uploaded><:-computed_region_6i9a_26nj>99</:-computed_region_6i9a_26nj><:-computed_region_hxwp_gyfc>14</:-computed_region_hxwp_gyfc></row><row _id="row-64nb-fhb2~ynbr" _uuid="00000000-0000-0000-07AD-891FDA0EC15A" _position="0" _address="https://opendata.camden.gov.uk/resource/_5rhh-fxna/row-64nb-fhb2~ynbr"><election_name>European Parliamentary Elections - 23 May 2019</election_name><polling_district_name>QA</polling_district_name><organisation>Ramsay Hall</organisation><street>Maple Street</street><postcode>W1T 5HB</postcode><ward_name>Bloomsbury</ward_name><parliamentary_constituency_name>Holborn and St. Pancras</parliamentary_constituency_name><easting>529238</easting><northing>182046</northing><longitude>-0.138551</longitude><latitude>51.522554</latitude><location latitude="51.522554" longitude="-0.138551"/><spatial_accuracy>Local Land And Property Gazetteer</spatial_accuracy><socrata_id>55</socrata_id><last_uploaded>2019-04-23T08:48:00</last_uploaded><:-computed_region_6i9a_26nj>10</:-computed_region_6i9a_26nj><:-computed_region_hxwp_gyfc>2</:-computed_region_hxwp_gyfc></row><row _id="row-2t3t.cpmf-5c7c" _uuid="00000000-0000-0000-49EC-0C210C783B55" _position="0" _address="https://opendata.camden.gov.uk/resource/_5rhh-fxna/row-2t3t.cpmf-5c7c"><election_name>European Parliamentary Elections - 23 May 2019</election_name><polling_district_name>QB</polling_district_name><organisation>Ramsay Hall</organisation><street>Maple Street</street><postcode>W1T 5HB</postcode><ward_name>Bloomsbury</ward_name><parliamentary_constituency_name>Holborn and St. Pancras</parliamentary_constituency_name><easting>529238</easting><northing>182046</northing><longitude>-0.138551</longitude><latitude>51.522554</latitude><location latitude="51.522554" longitude="-0.138551"/><spatial_accuracy>Local Land And Property Gazetteer</spatial_accuracy><socrata_id>56</socrata_id><last_uploaded>2019-04-23T08:48:00</last_uploaded><:-computed_region_6i9a_26nj>10</:-computed_region_6i9a_26nj><:-computed_region_hxwp_gyfc>2</:-computed_region_hxwp_gyfc></row><row _id="row-rwm8_2jkt_98zx" _uuid="00000000-0000-0000-F774-E8AC5FAAAC25" _position="0" _address="https://opendata.camden.gov.uk/resource/_5rhh-fxna/row-rwm8_2jkt_98zx"><election_name>European Parliamentary Elections - 23 May 2019</election_name><polling_district_name>QC</polling_district_name><organisation>Marchmont Street Community Centre</organisation><street>Marchmont Street</street><postcode>WC1N 1AB</postcode><ward_name>Bloomsbury</ward_name><parliamentary_constituency_name>Holborn and St. Pancras</parliamentary_constituency_name><easting>530161</easting><northing>182379</northing><longitude>-0.125132</longitude><latitude>51.525335</latitude><location latitude="51.525335" longitude="-0.125132"/><spatial_accuracy>Local Land And Property Gazetteer</spatial_accuracy><socrata_id>57</socrata_id><last_uploaded>2019-04-23T08:48:00</last_uploaded><:-computed_region_6i9a_26nj>12</:-computed_region_6i9a_26nj><:-computed_region_hxwp_gyfc>2</:-computed_region_hxwp_gyfc></row><row _id="row-8wxk~ge46-rddz" _uuid="00000000-0000-0000-7110-21B758EC4491" _position="0" _address="https://opendata.camden.gov.uk/resource/_5rhh-fxna/row-8wxk~ge46-rddz"><election_name>European Parliamentary Elections - 23 May 2019</election_name><polling_district_name>RA</polling_district_name><organisation>Dragon Hall Community Centre</organisation><street>Stukeley Street</street><postcode>WC2B 5LL</postcode><ward_name>Holborn and Covent Garden</ward_name><parliamentary_constituency_name>Holborn and St. Pancras</parliamentary_constituency_name><easting>530357</easting><northing>181415</northing><longitude>-0.122665</longitude><latitude>51.516627</latitude><location latitude="51.516627" longitude="-0.122665"/><spatial_accuracy>Local Land And Property Gazetteer</spatial_accuracy><socrata_id>58</socrata_id><last_uploaded>2019-04-23T08:48:00</last_uploaded><:-computed_region_6i9a_26nj>77</:-computed_region_6i9a_26nj><:-computed_region_hxwp_gyfc>11</:-computed_region_hxwp_gyfc></row><row _id="row-rjwx-5ntw~5f3n" _uuid="00000000-0000-0000-249C-220922F18623" _position="0" _address="https://opendata.camden.gov.uk/resource/_5rhh-fxna/row-rjwx-5ntw~5f3n"><election_name>European Parliamentary Elections - 23 May 2019</election_name><polling_district_name>RB</polling_district_name><organisation>Basement, Holborn Library</organisation><street>Theobald's Road</street><postcode>WC1X 8PA</postcode><ward_name>Holborn and Covent Garden</ward_name><parliamentary_constituency_name>Holborn and St. Pancras</parliamentary_constituency_name><easting>530827</easting><northing>181934</northing><longitude>-0.115702</longitude><latitude>51.521182</latitude><location latitude="51.521182" longitude="-0.115702"/><spatial_accuracy>Local Land And Property Gazetteer</spatial_accuracy><socrata_id>59</socrata_id><last_uploaded>2019-04-23T08:48:00</last_uploaded><:-computed_region_6i9a_26nj>79</:-computed_region_6i9a_26nj><:-computed_region_hxwp_gyfc>11</:-computed_region_hxwp_gyfc></row><row _id="row-hnhg_3pvf_ciup" _uuid="00000000-0000-0000-729A-AF0E7A4847A2" _position="0" _address="https://opendata.camden.gov.uk/resource/_5rhh-fxna/row-hnhg_3pvf_ciup"><election_name>European Parliamentary Elections - 23 May 2019</election_name><polling_district_name>RC</polling_district_name><organisation>St. Alban's Centre</organisation><street>Leigh Place</street><postcode>EC1N 7AB</postcode><ward_name>Holborn and Covent Garden</ward_name><parliamentary_constituency_name>Holborn and St. Pancras</parliamentary_constituency_name><easting>531199</easting><northing>181793</northing><longitude>-0.110396</longitude><latitude>51.519829</latitude><location latitude="51.519829" longitude="-0.110396"/><spatial_accuracy>Local Land And Property Gazetteer</spatial_accuracy><socrata_id>60</socrata_id><last_uploaded>2019-04-23T08:48:00</last_uploaded><:-computed_region_6i9a_26nj>76</:-computed_region_6i9a_26nj><:-computed_region_hxwp_gyfc>11</:-computed_region_hxwp_gyfc></row></row></response>