<response><row><row _id="241" _uuid="0C245E0B-8752-424A-8A4C-EB3045E2C5FB" _position="241" _address="https://opendata.camden.gov.uk/resource/_5rhh-fxna/241"><election_name>European Parliamentary Elections - 23 May 2019</election_name><polling_district_name>BA</polling_district_name><organisation>Holly Lodge Community Centre</organisation><street>Makepeace Avenue</street><postcode>N6 6HL</postcode><ward_name>Highgate</ward_name><parliamentary_constituency_name>Holborn and St. Pancras</parliamentary_constituency_name><easting>528445</easting><northing>186710</northing><longitude>-0.148274</longitude><latitude>51.56465</latitude><location human_address="{&quot;address&quot;:&quot;&quot;,&quot;city&quot;:&quot;&quot;,&quot;state&quot;:&quot;&quot;,&quot;zip&quot;:&quot;&quot;}" latitude="51.56465" longitude="-0.148274" needs_recoding="false"/><spatial_accuracy>Local Land And Property Gazetteer</spatial_accuracy><socrata_id>4</socrata_id><last_uploaded>2019-04-18T13:06:58</last_uploaded></row><row _id="242" _uuid="2917A8A1-8EB6-4B13-8DF0-E2257C2E5E19" _position="242" _address="https://opendata.camden.gov.uk/resource/_5rhh-fxna/242"><election_name>European Parliamentary Elections - 23 May 2019</election_name><polling_district_name>IB</polling_district_name><organisation>Kiln Place Tenants Association Hall</organisation><street>Kiln Place</street><postcode>NW5 4AP</postcode><ward_name>Gospel Oak</ward_name><parliamentary_constituency_name>Holborn and St. Pancras</parliamentary_constituency_name><easting>528276</easting><northing>185519</northing><longitude>-0.151145</longitude><latitude>51.553985</latitude><location human_address="{&quot;address&quot;:&quot;&quot;,&quot;city&quot;:&quot;&quot;,&quot;state&quot;:&quot;&quot;,&quot;zip&quot;:&quot;&quot;}" latitude="51.553985" longitude="-0.151145" needs_recoding="false"/><spatial_accuracy>Local Land And Property Gazetteer</spatial_accuracy><socrata_id>28</socrata_id><last_uploaded>2019-04-18T13:06:58</last_uploaded></row><row _id="243" _uuid="6036F3A2-0E4A-4711-A6EC-73CFF9528340" _position="243" _address="https://opendata.camden.gov.uk/resource/_5rhh-fxna/243"><election_name>European Parliamentary Elections - 23 May 2019</election_name><polling_district_name>QA</polling_district_name><organisation>Ramsay Hall</organisation><street>Maple Street</street><postcode>W1T 5HB</postcode><ward_name>Bloomsbury</ward_name><parliamentary_constituency_name>Holborn and St. Pancras</parliamentary_constituency_name><easting>529238</easting><northing>182046</northing><longitude>-0.138551</longitude><latitude>51.522554</latitude><location human_address="{&quot;address&quot;:&quot;&quot;,&quot;city&quot;:&quot;&quot;,&quot;state&quot;:&quot;&quot;,&quot;zip&quot;:&quot;&quot;}" latitude="51.522554" longitude="-0.138551" needs_recoding="false"/><spatial_accuracy>Local Land And Property Gazetteer</spatial_accuracy><socrata_id>55</socrata_id><last_uploaded>2019-04-18T13:06:58</last_uploaded></row><row _id="244" _uuid="AF922FCE-68D8-49E0-B703-0BE62AAAF56A" _position="244" _address="https://opendata.camden.gov.uk/resource/_5rhh-fxna/244"><election_name>European Parliamentary Elections - 23 May 2019</election_name><polling_district_name>ED</polling_district_name><organisation>St James Hall</organisation><street>Sherriff Road</street><postcode>NW6 2AP</postcode><ward_name>West Hampstead</ward_name><parliamentary_constituency_name>Hampstead and Kilburn</parliamentary_constituency_name><easting>525449</easting><northing>184541</northing><longitude>-0.192248</longitude><latitude>51.545831</latitude><location human_address="{&quot;address&quot;:&quot;&quot;,&quot;city&quot;:&quot;&quot;,&quot;state&quot;:&quot;&quot;,&quot;zip&quot;:&quot;&quot;}" latitude="51.545831" longitude="-0.192248" needs_recoding="false"/><spatial_accuracy>Local Land And Property Gazetteer</spatial_accuracy><socrata_id>16</socrata_id><last_uploaded>2019-04-18T13:06:58</last_uploaded></row><row _id="245" _uuid="5EF1C592-177B-492F-97FB-C0176AD77845" _position="245" _address="https://opendata.camden.gov.uk/resource/_5rhh-fxna/245"><election_name>European Parliamentary Elections - 23 May 2019</election_name><polling_district_name>JA</polling_district_name><organisation>Rainbow Nursery</organisation><street>Lupton Street</street><postcode>NW5 2JB</postcode><ward_name>Kentish Town</ward_name><parliamentary_constituency_name>Holborn and St. Pancras</parliamentary_constituency_name><easting>529179</easting><northing>185588</northing><longitude>-0.138102</longitude><latitude>51.554399</latitude><location human_address="{&quot;address&quot;:&quot;&quot;,&quot;city&quot;:&quot;&quot;,&quot;state&quot;:&quot;&quot;,&quot;zip&quot;:&quot;&quot;}" latitude="51.554399" longitude="-0.138102" needs_recoding="false"/><spatial_accuracy>Local Land And Property Gazetteer</spatial_accuracy><socrata_id>30</socrata_id><last_uploaded>2019-04-18T13:06:58</last_uploaded></row><row _id="246" _uuid="966174CC-3555-4899-B578-BA69985B4E1D" _position="246" _address="https://opendata.camden.gov.uk/resource/_5rhh-fxna/246"><election_name>European Parliamentary Elections - 23 May 2019</election_name><polling_district_name>RB</polling_district_name><organisation>Basement, Holborn Library</organisation><street>Theobald's Road</street><postcode>WC1X 8PA</postcode><ward_name>Holborn and Covent Garden</ward_name><parliamentary_constituency_name>Holborn and St. Pancras</parliamentary_constituency_name><easting>530827</easting><northing>181934</northing><longitude>-0.115702</longitude><latitude>51.521182</latitude><location human_address="{&quot;address&quot;:&quot;&quot;,&quot;city&quot;:&quot;&quot;,&quot;state&quot;:&quot;&quot;,&quot;zip&quot;:&quot;&quot;}" latitude="51.521182" longitude="-0.115702" needs_recoding="false"/><spatial_accuracy>Local Land And Property Gazetteer</spatial_accuracy><socrata_id>59</socrata_id><last_uploaded>2019-04-18T13:06:58</last_uploaded></row><row _id="247" _uuid="F38A7760-4C01-49CD-9943-BCA75309E447" _position="247" _address="https://opendata.camden.gov.uk/resource/_5rhh-fxna/247"><election_name>European Parliamentary Elections - 23 May 2019</election_name><polling_district_name>AA</polling_district_name><organisation>Burgh House</organisation><street>New End Square</street><postcode>NW3 1LT</postcode><ward_name>Hampstead Town</ward_name><parliamentary_constituency_name>Hampstead and Kilburn</parliamentary_constituency_name><easting>526606</easting><northing>185943</northing><longitude>-0.175067</longitude><latitude>51.558172</latitude><location human_address="{&quot;address&quot;:&quot;&quot;,&quot;city&quot;:&quot;&quot;,&quot;state&quot;:&quot;&quot;,&quot;zip&quot;:&quot;&quot;}" latitude="51.558172" longitude="-0.175067" needs_recoding="false"/><spatial_accuracy>Local Land And Property Gazetteer</spatial_accuracy><socrata_id>1</socrata_id><last_uploaded>2019-04-18T13:06:55</last_uploaded></row><row _id="248" _uuid="4EB9184E-EE94-496B-94C2-18583F1E36C4" _position="248" _address="https://opendata.camden.gov.uk/resource/_5rhh-fxna/248"><election_name>European Parliamentary Elections - 23 May 2019</election_name><polling_district_name>DA</polling_district_name><organisation>Templar House Social Hall</organisation><street>Shoot-Up Hill</street><postcode>NW2 3TD</postcode><ward_name>Fortune Green</ward_name><parliamentary_constituency_name>Hampstead and Kilburn</parliamentary_constituency_name><easting>524583</easting><northing>184805</northing><longitude>-0.204637</longitude><latitude>51.548395</latitude><location human_address="{&quot;address&quot;:&quot;&quot;,&quot;city&quot;:&quot;&quot;,&quot;state&quot;:&quot;&quot;,&quot;zip&quot;:&quot;&quot;}" latitude="51.548395" longitude="-0.204637" needs_recoding="false"/><spatial_accuracy>Local Land And Property Gazetteer</spatial_accuracy><socrata_id>10</socrata_id><last_uploaded>2019-04-18T13:06:58</last_uploaded></row><row _id="249" _uuid="0932A32E-E0E4-45A8-A16F-BFFBC5DCA8DA" _position="249" _address="https://opendata.camden.gov.uk/resource/_5rhh-fxna/249"><election_name>European Parliamentary Elections - 23 May 2019</election_name><polling_district_name>HA</polling_district_name><organisation>Belsize Community Library</organisation><street>Antrim Road</street><postcode>NW3 4XN</postcode><ward_name>Belsize</ward_name><parliamentary_constituency_name>Hampstead and Kilburn</parliamentary_constituency_name><easting>527523</easting><northing>184823</northing><longitude>-0.162252</longitude><latitude>51.547901</latitude><location human_address="{&quot;address&quot;:&quot;&quot;,&quot;city&quot;:&quot;&quot;,&quot;state&quot;:&quot;&quot;,&quot;zip&quot;:&quot;&quot;}" latitude="51.547901" longitude="-0.162252" needs_recoding="false"/><spatial_accuracy>Local Land And Property Gazetteer</spatial_accuracy><socrata_id>24</socrata_id><last_uploaded>2019-04-18T13:06:58</last_uploaded></row><row _id="250" _uuid="BBF04D29-4294-4B30-822C-FF16BB1E0FAD" _position="250" _address="https://opendata.camden.gov.uk/resource/_5rhh-fxna/250"><election_name>European Parliamentary Elections - 23 May 2019</election_name><polling_district_name>FB</polling_district_name><organisation>Abbey Community Centre</organisation><street>Belsize Road</street><postcode>NW6 4DJ</postcode><ward_name>Kilburn</ward_name><parliamentary_constituency_name>Hampstead and Kilburn</parliamentary_constituency_name><easting>525714</easting><northing>183841</northing><longitude>-0.188678</longitude><latitude>51.539481</latitude><location human_address="{&quot;address&quot;:&quot;&quot;,&quot;city&quot;:&quot;&quot;,&quot;state&quot;:&quot;&quot;,&quot;zip&quot;:&quot;&quot;}" latitude="51.539481" longitude="-0.188678" needs_recoding="false"/><spatial_accuracy>Local Land And Property Gazetteer</spatial_accuracy><socrata_id>18</socrata_id><last_uploaded>2019-04-18T13:06:58</last_uploaded></row><row _id="251" _uuid="F49056D4-36AD-43E3-99B5-D8CF29B436BD" _position="251" _address="https://opendata.camden.gov.uk/resource/_5rhh-fxna/251"><election_name>European Parliamentary Elections - 23 May 2019</election_name><polling_district_name>MC</polling_district_name><organisation>The Haven</organisation><street>Castlehaven Road</street><postcode>NW1 8RU</postcode><ward_name>Camden Town with Primrose Hill</ward_name><parliamentary_constituency_name>Holborn and St. Pancras</parliamentary_constituency_name><easting>528721</easting><northing>184283</northing><longitude>-0.145182</longitude><latitude>51.542776</latitude><location human_address="{&quot;address&quot;:&quot;&quot;,&quot;city&quot;:&quot;&quot;,&quot;state&quot;:&quot;&quot;,&quot;zip&quot;:&quot;&quot;}" latitude="51.542776" longitude="-0.145182" needs_recoding="false"/><spatial_accuracy>Local Land And Property Gazetteer</spatial_accuracy><socrata_id>42</socrata_id><last_uploaded>2019-04-18T13:06:58</last_uploaded></row><row _id="252" _uuid="676F2351-16B8-427C-8DD5-9C4AA99CD31B" _position="252" _address="https://opendata.camden.gov.uk/resource/_5rhh-fxna/252"><election_name>European Parliamentary Elections - 23 May 2019</election_name><polling_district_name>EB</polling_district_name><organisation>Lymington Road Residents Association Hall</organisation><street>Dresden Close</street><postcode>NW6 1XP</postcode><ward_name>West Hampstead</ward_name><parliamentary_constituency_name>Hampstead and Kilburn</parliamentary_constituency_name><easting>525982</easting><northing>185031</northing><longitude>-0.18439</longitude><latitude>51.550116</latitude><location human_address="{&quot;address&quot;:&quot;&quot;,&quot;city&quot;:&quot;&quot;,&quot;state&quot;:&quot;&quot;,&quot;zip&quot;:&quot;&quot;}" latitude="51.550116" longitude="-0.18439" needs_recoding="false"/><spatial_accuracy>Local Land And Property Gazetteer</spatial_accuracy><socrata_id>14</socrata_id><last_uploaded>2019-04-18T13:06:58</last_uploaded></row><row _id="253" _uuid="603AC734-198C-4AA7-A602-2A59075A9257" _position="253" _address="https://opendata.camden.gov.uk/resource/_5rhh-fxna/253"><election_name>European Parliamentary Elections - 23 May 2019</election_name><polling_district_name>IA</polling_district_name><organisation>Gospel Oak Methodist Church</organisation><street>Agincourt Road</street><postcode>NW3 2NT</postcode><ward_name>Gospel Oak</ward_name><parliamentary_constituency_name>Holborn and St. Pancras</parliamentary_constituency_name><easting>527746</easting><northing>185495</northing><longitude>-0.158794</longitude><latitude>51.55389</latitude><location human_address="{&quot;address&quot;:&quot;&quot;,&quot;city&quot;:&quot;&quot;,&quot;state&quot;:&quot;&quot;,&quot;zip&quot;:&quot;&quot;}" latitude="51.55389" longitude="-0.158794" needs_recoding="false"/><spatial_accuracy>Local Land And Property Gazetteer</spatial_accuracy><socrata_id>27</socrata_id><last_uploaded>2019-04-18T13:06:58</last_uploaded></row><row _id="254" _uuid="72674E4E-865F-48BA-BA55-39F8BA345046" _position="254" _address="https://opendata.camden.gov.uk/resource/_5rhh-fxna/254"><election_name>European Parliamentary Elections - 23 May 2019</election_name><polling_district_name>CC</polling_district_name><organisation>Holy Trinity Church Hall</organisation><street>Sumpter Close</street><postcode>NW3 5HR</postcode><ward_name>Frognal and Fitzjohns</ward_name><parliamentary_constituency_name>Hampstead and Kilburn</parliamentary_constituency_name><easting>526371</easting><northing>184697</northing><longitude>-0.178903</longitude><latitude>51.547027</latitude><location human_address="{&quot;address&quot;:&quot;&quot;,&quot;city&quot;:&quot;&quot;,&quot;state&quot;:&quot;&quot;,&quot;zip&quot;:&quot;&quot;}" latitude="51.547027" longitude="-0.178903" needs_recoding="false"/><spatial_accuracy>Local Land And Property Gazetteer</spatial_accuracy><socrata_id>9</socrata_id><last_uploaded>2019-04-18T13:06:58</last_uploaded></row><row _id="255" _uuid="0D65F2DC-C7E9-4DF0-BA11-9837FC14345A" _position="255" _address="https://opendata.camden.gov.uk/resource/_5rhh-fxna/255"><election_name>European Parliamentary Elections - 23 May 2019</election_name><polling_district_name>NA</polling_district_name><organisation>Christ Church C E Primary School</organisation><street>Redhill Street</street><postcode>NW1 4BD</postcode><ward_name>Regent's Park</ward_name><parliamentary_constituency_name>Holborn and St. Pancras</parliamentary_constituency_name><easting>528813</easting><northing>182950</northing><longitude>-0.144344</longitude><latitude>51.530776</latitude><location human_address="{&quot;address&quot;:&quot;&quot;,&quot;city&quot;:&quot;&quot;,&quot;state&quot;:&quot;&quot;,&quot;zip&quot;:&quot;&quot;}" latitude="51.530776" longitude="-0.144344" needs_recoding="false"/><spatial_accuracy>Local Land And Property Gazetteer</spatial_accuracy><socrata_id>44</socrata_id><last_uploaded>2019-04-18T13:06:58</last_uploaded></row><row _id="256" _uuid="784F519A-B47D-4872-82DB-76E9348A25EB" _position="256" _address="https://opendata.camden.gov.uk/resource/_5rhh-fxna/256"><election_name>European Parliamentary Elections - 23 May 2019</election_name><polling_district_name>MA</polling_district_name><organisation>Primrose Hill Community Centre</organisation><street>Hopkinson's Place</street><postcode>NW1 8TN</postcode><ward_name>Camden Town with Primrose Hill</ward_name><parliamentary_constituency_name>Holborn and St. Pancras</parliamentary_constituency_name><easting>528021</easting><northing>183970</northing><longitude>-0.155384</longitude><latitude>51.540122</latitude><location human_address="{&quot;address&quot;:&quot;&quot;,&quot;city&quot;:&quot;&quot;,&quot;state&quot;:&quot;&quot;,&quot;zip&quot;:&quot;&quot;}" latitude="51.540122" longitude="-0.155384" needs_recoding="false"/><spatial_accuracy>Local Land And Property Gazetteer</spatial_accuracy><socrata_id>40</socrata_id><last_uploaded>2019-04-18T13:06:58</last_uploaded></row><row _id="257" _uuid="81397509-31CF-43B5-86A7-A48FA357C606" _position="257" _address="https://opendata.camden.gov.uk/resource/_5rhh-fxna/257"><election_name>European Parliamentary Elections - 23 May 2019</election_name><polling_district_name>MB</polling_district_name><organisation>The Haven</organisation><street>Castlehaven Road</street><postcode>NW1 8RU</postcode><ward_name>Camden Town with Primrose Hill</ward_name><parliamentary_constituency_name>Holborn and St. Pancras</parliamentary_constituency_name><easting>528721</easting><northing>184283</northing><longitude>-0.145182</longitude><latitude>51.542776</latitude><location human_address="{&quot;address&quot;:&quot;&quot;,&quot;city&quot;:&quot;&quot;,&quot;state&quot;:&quot;&quot;,&quot;zip&quot;:&quot;&quot;}" latitude="51.542776" longitude="-0.145182" needs_recoding="false"/><spatial_accuracy>Local Land And Property Gazetteer</spatial_accuracy><socrata_id>41</socrata_id><last_uploaded>2019-04-18T13:06:58</last_uploaded></row><row _id="258" _uuid="0E84244D-A9F1-4097-AE88-47243B0CB261" _position="258" _address="https://opendata.camden.gov.uk/resource/_5rhh-fxna/258"><election_name>European Parliamentary Elections - 23 May 2019</election_name><polling_district_name>MD</polling_district_name><organisation>Choices</organisation><street>Carol Street</street><postcode>NW1 0HT</postcode><ward_name>Camden Town with Primrose Hill</ward_name><parliamentary_constituency_name>Holborn and St. Pancras</parliamentary_constituency_name><easting>529041</easting><northing>183859</northing><longitude>-0.140725</longitude><latitude>51.538893</latitude><location human_address="{&quot;address&quot;:&quot;&quot;,&quot;city&quot;:&quot;&quot;,&quot;state&quot;:&quot;&quot;,&quot;zip&quot;:&quot;&quot;}" latitude="51.538893" longitude="-0.140725" needs_recoding="false"/><spatial_accuracy>Local Land And Property Gazetteer</spatial_accuracy><socrata_id>43</socrata_id><last_uploaded>2019-04-18T13:06:58</last_uploaded></row><row _id="259" _uuid="9105BF56-1E91-4930-9DA1-9DC57C7DC8E8" _position="259" _address="https://opendata.camden.gov.uk/resource/_5rhh-fxna/259"><election_name>European Parliamentary Elections - 23 May 2019</election_name><polling_district_name>EC</polling_district_name><organisation>Brondesbury Christian Centre</organisation><street>Iverson Road</street><postcode>NW6 2QT</postcode><ward_name>West Hampstead</ward_name><parliamentary_constituency_name>Hampstead and Kilburn</parliamentary_constituency_name><easting>524791</easting><northing>184564</northing><longitude>-0.201724</longitude><latitude>51.546183</latitude><location human_address="{&quot;address&quot;:&quot;&quot;,&quot;city&quot;:&quot;&quot;,&quot;state&quot;:&quot;&quot;,&quot;zip&quot;:&quot;&quot;}" latitude="51.546183" longitude="-0.201724" needs_recoding="false"/><spatial_accuracy>Local Land And Property Gazetteer</spatial_accuracy><socrata_id>15</socrata_id><last_uploaded>2019-04-18T13:06:58</last_uploaded></row><row _id="260" _uuid="9D67FEBA-BF58-40A7-9EEE-76D2BB06E123" _position="260" _address="https://opendata.camden.gov.uk/resource/_5rhh-fxna/260"><election_name>European Parliamentary Elections - 23 May 2019</election_name><polling_district_name>OA</polling_district_name><organisation>Agar Grove TA Lulworth Meeting Room</organisation><street>Wrotham Road</street><postcode>NW1 9SS</postcode><ward_name>St Pancras and Somers Town</ward_name><parliamentary_constituency_name>Holborn and St. Pancras</parliamentary_constituency_name><easting>529554</easting><northing>184206</northing><longitude>-0.133205</longitude><latitude>51.541894</latitude><location human_address="{&quot;address&quot;:&quot;&quot;,&quot;city&quot;:&quot;&quot;,&quot;state&quot;:&quot;&quot;,&quot;zip&quot;:&quot;&quot;}" latitude="51.541894" longitude="-0.133205" needs_recoding="false"/><spatial_accuracy>Local Land And Property Gazetteer</spatial_accuracy><socrata_id>47</socrata_id><last_uploaded>2019-04-18T13:06:58</last_uploaded></row><row _id="261" _uuid="1E0363D7-1144-43CE-813D-9FBF136F6714" _position="261" _address="https://opendata.camden.gov.uk/resource/_5rhh-fxna/261"><election_name>European Parliamentary Elections - 23 May 2019</election_name><polling_district_name>PA</polling_district_name><organisation>Camden Chinese Community Centre</organisation><street>Tavistock Place</street><postcode>WC1H 9SN</postcode><ward_name>King's Cross</ward_name><parliamentary_constituency_name>Holborn and St. Pancras</parliamentary_constituency_name><easting>530036</easting><northing>182379</northing><longitude>-0.126933</longitude><latitude>51.525364</latitude><location human_address="{&quot;address&quot;:&quot;&quot;,&quot;city&quot;:&quot;&quot;,&quot;state&quot;:&quot;&quot;,&quot;zip&quot;:&quot;&quot;}" latitude="51.525364" longitude="-0.126933" needs_recoding="false"/><spatial_accuracy>Local Land And Property Gazetteer</spatial_accuracy><socrata_id>52</socrata_id><last_uploaded>2019-04-18T13:06:58</last_uploaded></row><row _id="262" _uuid="89D8DE46-6176-4A36-9982-D3F098035FC3" _position="262" _address="https://opendata.camden.gov.uk/resource/_5rhh-fxna/262"><election_name>European Parliamentary Elections - 23 May 2019</election_name><polling_district_name>KB</polling_district_name><organisation>The Irish Centre</organisation><street>Camden Square</street><postcode>NW1 9XA</postcode><ward_name>Cantelowes</ward_name><parliamentary_constituency_name>Holborn and St. Pancras</parliamentary_constituency_name><easting>529617</easting><northing>184415</northing><longitude>-0.13222</longitude><latitude>51.543758</latitude><location human_address="{&quot;address&quot;:&quot;&quot;,&quot;city&quot;:&quot;&quot;,&quot;state&quot;:&quot;&quot;,&quot;zip&quot;:&quot;&quot;}" latitude="51.543758" longitude="-0.13222" needs_recoding="false"/><spatial_accuracy>Local Land And Property Gazetteer</spatial_accuracy><socrata_id>34</socrata_id><last_uploaded>2019-04-18T13:06:58</last_uploaded></row><row _id="263" _uuid="93D2C6B2-EC10-47E7-9C77-090E1AAB901B" _position="263" _address="https://opendata.camden.gov.uk/resource/_5rhh-fxna/263"><election_name>European Parliamentary Elections - 23 May 2019</election_name><polling_district_name>GA</polling_district_name><organisation>St Marys Community Hall</organisation><street>Abbey Road</street><postcode>NW6 4SR</postcode><ward_name>Swiss Cottage</ward_name><parliamentary_constituency_name>Hampstead and Kilburn</parliamentary_constituency_name><easting>525712</easting><northing>184035</northing><longitude>-0.188638</longitude><latitude>51.541225</latitude><location human_address="{&quot;address&quot;:&quot;&quot;,&quot;city&quot;:&quot;&quot;,&quot;state&quot;:&quot;&quot;,&quot;zip&quot;:&quot;&quot;}" latitude="51.541225" longitude="-0.188638" needs_recoding="false"/><spatial_accuracy>Local Land And Property Gazetteer</spatial_accuracy><socrata_id>21</socrata_id><last_uploaded>2019-04-18T13:06:58</last_uploaded></row><row _id="264" _uuid="ECD45E24-9F4C-4A95-8726-6DE0B6332D71" _position="264" _address="https://opendata.camden.gov.uk/resource/_5rhh-fxna/264"><election_name>European Parliamentary Elections - 23 May 2019</election_name><polling_district_name>CA</polling_district_name><organisation>St Luke's Church of England School</organisation><street>Kidderpore Avenue</street><postcode>NW3 7SU</postcode><ward_name>Frognal and Fitzjohns</ward_name><parliamentary_constituency_name>Hampstead and Kilburn</parliamentary_constituency_name><easting>525269</easting><northing>185902</northing><longitude>-0.194358</longitude><latitude>51.558102</latitude><location human_address="{&quot;address&quot;:&quot;&quot;,&quot;city&quot;:&quot;&quot;,&quot;state&quot;:&quot;&quot;,&quot;zip&quot;:&quot;&quot;}" latitude="51.558102" longitude="-0.194358" needs_recoding="false"/><spatial_accuracy>Local Land And Property Gazetteer</spatial_accuracy><socrata_id>7</socrata_id><last_uploaded>2019-04-18T13:06:58</last_uploaded></row><row _id="265" _uuid="5FB5E407-3443-478E-A2B4-F41D8E4CE6A1" _position="265" _address="https://opendata.camden.gov.uk/resource/_5rhh-fxna/265"><election_name>European Parliamentary Elections - 23 May 2019</election_name><polling_district_name>LB</polling_district_name><organisation>Rhyl Primary School</organisation><street>Rhyl Street</street><postcode>NW5 3HB</postcode><ward_name>Haverstock</ward_name><parliamentary_constituency_name>Holborn and St. Pancras</parliamentary_constituency_name><easting>528335</easting><northing>184803</northing><longitude>-0.150556</longitude><latitude>51.547537</latitude><location human_address="{&quot;address&quot;:&quot;&quot;,&quot;city&quot;:&quot;&quot;,&quot;state&quot;:&quot;&quot;,&quot;zip&quot;:&quot;&quot;}" latitude="51.547537" longitude="-0.150556" needs_recoding="false"/><spatial_accuracy>Local Land And Property Gazetteer</spatial_accuracy><socrata_id>37</socrata_id><last_uploaded>2019-04-18T13:06:58</last_uploaded></row><row _id="266" _uuid="31FA1BEC-CF00-4314-8F46-11E78004AD09" _position="266" _address="https://opendata.camden.gov.uk/resource/_5rhh-fxna/266"><election_name>European Parliamentary Elections - 23 May 2019</election_name><polling_district_name>KA</polling_district_name><organisation>Kentish Town Health Centre</organisation><street>Bartholomew Road</street><postcode>NW5 2BX</postcode><ward_name>Cantelowes</ward_name><parliamentary_constituency_name>Holborn and St. Pancras</parliamentary_constituency_name><easting>529075</easting><northing>184696</northing><longitude>-0.139929</longitude><latitude>51.546407</latitude><location human_address="{&quot;address&quot;:&quot;&quot;,&quot;city&quot;:&quot;&quot;,&quot;state&quot;:&quot;&quot;,&quot;zip&quot;:&quot;&quot;}" latitude="51.546407" longitude="-0.139929" needs_recoding="false"/><spatial_accuracy>Local Land And Property Gazetteer</spatial_accuracy><socrata_id>33</socrata_id><last_uploaded>2019-04-18T13:06:58</last_uploaded></row><row _id="267" _uuid="7AA1C1DA-D053-45FD-936E-A4D15F3BA11C" _position="267" _address="https://opendata.camden.gov.uk/resource/_5rhh-fxna/267"><election_name>European Parliamentary Elections - 23 May 2019</election_name><polling_district_name>QB</polling_district_name><organisation>Ramsay Hall</organisation><street>Maple Street</street><postcode>W1T 5HB</postcode><ward_name>Bloomsbury</ward_name><parliamentary_constituency_name>Holborn and St. Pancras</parliamentary_constituency_name><easting>529238</easting><northing>182046</northing><longitude>-0.138551</longitude><latitude>51.522554</latitude><location human_address="{&quot;address&quot;:&quot;&quot;,&quot;city&quot;:&quot;&quot;,&quot;state&quot;:&quot;&quot;,&quot;zip&quot;:&quot;&quot;}" latitude="51.522554" longitude="-0.138551" needs_recoding="false"/><spatial_accuracy>Local Land And Property Gazetteer</spatial_accuracy><socrata_id>56</socrata_id><last_uploaded>2019-04-18T13:06:58</last_uploaded></row><row _id="268" _uuid="FAEC1FD3-B7F7-4E0D-B44D-0359F79F1F21" _position="268" _address="https://opendata.camden.gov.uk/resource/_5rhh-fxna/268"><election_name>European Parliamentary Elections - 23 May 2019</election_name><polling_district_name>DB</polling_district_name><organisation>Beckford Primary School</organisation><street>Dornfell Street</street><postcode>NW6 1QL</postcode><ward_name>Fortune Green</ward_name><parliamentary_constituency_name>Hampstead and Kilburn</parliamentary_constituency_name><easting>524934</easting><northing>185067</northing><longitude>-0.199484</longitude><latitude>51.550672</latitude><location human_address="{&quot;address&quot;:&quot;&quot;,&quot;city&quot;:&quot;&quot;,&quot;state&quot;:&quot;&quot;,&quot;zip&quot;:&quot;&quot;}" latitude="51.550672" longitude="-0.199484" needs_recoding="false"/><spatial_accuracy>Local Land And Property Gazetteer</spatial_accuracy><socrata_id>11</socrata_id><last_uploaded>2019-04-18T13:06:58</last_uploaded></row><row _id="269" _uuid="7A254A24-3E45-4859-BA64-7EC239FDFDFE" _position="269" _address="https://opendata.camden.gov.uk/resource/_5rhh-fxna/269"><election_name>European Parliamentary Elections - 23 May 2019</election_name><polling_district_name>PB</polling_district_name><organisation>Kings Cross Neighbourhood Community Centre</organisation><street>Argyle Street</street><postcode>WC1H 8EF</postcode><ward_name>King's Cross</ward_name><parliamentary_constituency_name>Holborn and St. Pancras</parliamentary_constituency_name><easting>530153</easting><northing>182764</northing><longitude>-0.125105</longitude><latitude>51.528797</latitude><location human_address="{&quot;address&quot;:&quot;&quot;,&quot;city&quot;:&quot;&quot;,&quot;state&quot;:&quot;&quot;,&quot;zip&quot;:&quot;&quot;}" latitude="51.528797" longitude="-0.125105" needs_recoding="false"/><spatial_accuracy>Local Land And Property Gazetteer</spatial_accuracy><socrata_id>53</socrata_id><last_uploaded>2019-04-18T13:06:58</last_uploaded></row><row _id="270" _uuid="2D6F9A2E-FF37-441B-A8DA-C8187A31583F" _position="270" _address="https://opendata.camden.gov.uk/resource/_5rhh-fxna/270"><election_name>European Parliamentary Elections - 23 May 2019</election_name><polling_district_name>DC</polling_district_name><organisation>Emmanuel Church</organisation><street>Lyncroft Gardens</street><postcode>NW6 1JU</postcode><ward_name>Fortune Green</ward_name><parliamentary_constituency_name>Hampstead and Kilburn</parliamentary_constituency_name><easting>525413</easting><northing>185302</northing><longitude>-0.192496</longitude><latitude>51.552678</latitude><location human_address="{&quot;address&quot;:&quot;&quot;,&quot;city&quot;:&quot;&quot;,&quot;state&quot;:&quot;&quot;,&quot;zip&quot;:&quot;&quot;}" latitude="51.552678" longitude="-0.192496" needs_recoding="false"/><spatial_accuracy>Local Land And Property Gazetteer</spatial_accuracy><socrata_id>12</socrata_id><last_uploaded>2019-04-18T13:06:58</last_uploaded></row><row _id="271" _uuid="8F99BAB7-269A-4F04-BB8B-5C52A9721F35" _position="271" _address="https://opendata.camden.gov.uk/resource/_5rhh-fxna/271"><election_name>European Parliamentary Elections - 23 May 2019</election_name><polling_district_name>KC</polling_district_name><organisation>Maiden Lane Community Centre</organisation><street>St Paul's Crescent</street><postcode>NW1 9XZ</postcode><ward_name>Cantelowes</ward_name><parliamentary_constituency_name>Holborn and St. Pancras</parliamentary_constituency_name><easting>529860</easting><northing>184152</northing><longitude>-0.128815</longitude><latitude>51.541338</latitude><location human_address="{&quot;address&quot;:&quot;&quot;,&quot;city&quot;:&quot;&quot;,&quot;state&quot;:&quot;&quot;,&quot;zip&quot;:&quot;&quot;}" latitude="51.541338" longitude="-0.128815" needs_recoding="false"/><spatial_accuracy>Local Land And Property Gazetteer</spatial_accuracy><socrata_id>35</socrata_id><last_uploaded>2019-04-18T13:06:58</last_uploaded></row><row _id="272" _uuid="241E6174-E6D1-4542-902B-54BDA5F2021C" _position="272" _address="https://opendata.camden.gov.uk/resource/_5rhh-fxna/272"><election_name>European Parliamentary Elections - 23 May 2019</election_name><polling_district_name>GB</polling_district_name><organisation>Crossfield Day Centre</organisation><street>Fairhazel Gardens</street><postcode>NW6 3SG</postcode><ward_name>Swiss Cottage</ward_name><parliamentary_constituency_name>Hampstead and Kilburn</parliamentary_constituency_name><easting>526259</easting><northing>184156</northing><longitude>-0.180711</longitude><latitude>51.54219</latitude><location human_address="{&quot;address&quot;:&quot;&quot;,&quot;city&quot;:&quot;&quot;,&quot;state&quot;:&quot;&quot;,&quot;zip&quot;:&quot;&quot;}" latitude="51.54219" longitude="-0.180711" needs_recoding="false"/><spatial_accuracy>Local Land And Property Gazetteer</spatial_accuracy><socrata_id>22</socrata_id><last_uploaded>2019-04-18T13:06:58</last_uploaded></row><row _id="273" _uuid="04D1DD21-2175-452F-9CB1-0845C58766C6" _position="273" _address="https://opendata.camden.gov.uk/resource/_5rhh-fxna/273"><election_name>European Parliamentary Elections - 23 May 2019</election_name><polling_district_name>FA</polling_district_name><organisation>Kingsgate Community Centre</organisation><street>Kingsgate Road</street><postcode>NW6 2JH</postcode><ward_name>Kilburn</ward_name><parliamentary_constituency_name>Hampstead and Kilburn</parliamentary_constituency_name><easting>525177</easting><northing>184362</northing><longitude>-0.196232</longitude><latitude>51.544282</latitude><location human_address="{&quot;address&quot;:&quot;&quot;,&quot;city&quot;:&quot;&quot;,&quot;state&quot;:&quot;&quot;,&quot;zip&quot;:&quot;&quot;}" latitude="51.544282" longitude="-0.196232" needs_recoding="false"/><spatial_accuracy>Local Land And Property Gazetteer</spatial_accuracy><socrata_id>17</socrata_id><last_uploaded>2019-04-18T13:06:58</last_uploaded></row><row _id="274" _uuid="C8E160AA-613A-4D67-822B-94FB00CA99B1" _position="274" _address="https://opendata.camden.gov.uk/resource/_5rhh-fxna/274"><election_name>European Parliamentary Elections - 23 May 2019</election_name><polling_district_name>NC</polling_district_name><organisation>Crowndale Centre District Housing Office (DHO) Reception Area</organisation><street>Eversholt Street</street><postcode>NW1 1BD</postcode><ward_name>Regent's Park</ward_name><parliamentary_constituency_name>Holborn and St. Pancras</parliamentary_constituency_name><easting>529261</easting><northing>183348</northing><longitude>-0.137742</longitude><latitude>51.53425</latitude><location human_address="{&quot;address&quot;:&quot;&quot;,&quot;city&quot;:&quot;&quot;,&quot;state&quot;:&quot;&quot;,&quot;zip&quot;:&quot;&quot;}" latitude="51.53425" longitude="-0.137742" needs_recoding="false"/><spatial_accuracy>Local Land And Property Gazetteer</spatial_accuracy><socrata_id>46</socrata_id><last_uploaded>2019-04-18T13:06:58</last_uploaded></row><row _id="275" _uuid="8AC189A4-A46F-4099-A7B7-D18D4987FD4D" _position="275" _address="https://opendata.camden.gov.uk/resource/_5rhh-fxna/275"><election_name>European Parliamentary Elections - 23 May 2019</election_name><polling_district_name>QC</polling_district_name><organisation>Marchmont Street Community Centre</organisation><street>Marchmont Street</street><postcode>WC1N 1AB</postcode><ward_name>Bloomsbury</ward_name><parliamentary_constituency_name>Holborn and St. Pancras</parliamentary_constituency_name><easting>530161</easting><northing>182379</northing><longitude>-0.125132</longitude><latitude>51.525335</latitude><location human_address="{&quot;address&quot;:&quot;&quot;,&quot;city&quot;:&quot;&quot;,&quot;state&quot;:&quot;&quot;,&quot;zip&quot;:&quot;&quot;}" latitude="51.525335" longitude="-0.125132" needs_recoding="false"/><spatial_accuracy>Local Land And Property Gazetteer</spatial_accuracy><socrata_id>57</socrata_id><last_uploaded>2019-04-18T13:06:58</last_uploaded></row><row _id="276" _uuid="AAB5F8EA-0E5A-4E01-BCC0-9914BCC1D16F" _position="276" _address="https://opendata.camden.gov.uk/resource/_5rhh-fxna/276"><election_name>European Parliamentary Elections - 23 May 2019</election_name><polling_district_name>BB</polling_district_name><organisation>Highgate Road Chapel</organisation><street>Chetwynd Road</street><postcode>NW5 1BU</postcode><ward_name>Highgate</ward_name><parliamentary_constituency_name>Holborn and St. Pancras</parliamentary_constituency_name><easting>528658</easting><northing>185859</northing><longitude>-0.145514</longitude><latitude>51.556954</latitude><location human_address="{&quot;address&quot;:&quot;&quot;,&quot;city&quot;:&quot;&quot;,&quot;state&quot;:&quot;&quot;,&quot;zip&quot;:&quot;&quot;}" latitude="51.556954" longitude="-0.145514" needs_recoding="false"/><spatial_accuracy>Local Land And Property Gazetteer</spatial_accuracy><socrata_id>5</socrata_id><last_uploaded>2019-04-18T13:06:58</last_uploaded></row><row _id="277" _uuid="CF999FF6-A932-458C-B56F-018347370993" _position="277" _address="https://opendata.camden.gov.uk/resource/_5rhh-fxna/277"><election_name>European Parliamentary Elections - 23 May 2019</election_name><polling_district_name>OC</polling_district_name><organisation>Godwin and Crowndale Community Hall</organisation><street>Crowndale Road</street><postcode>NW1 1NN</postcode><ward_name>St Pancras and Somers Town</ward_name><parliamentary_constituency_name>Holborn and St. Pancras</parliamentary_constituency_name><easting>529435</easting><northing>183416</northing><longitude>-0.13521</longitude><latitude>51.534821</latitude><location human_address="{&quot;address&quot;:&quot;&quot;,&quot;city&quot;:&quot;&quot;,&quot;state&quot;:&quot;&quot;,&quot;zip&quot;:&quot;&quot;}" latitude="51.534821" longitude="-0.13521" needs_recoding="false"/><spatial_accuracy>Local Land And Property Gazetteer</spatial_accuracy><socrata_id>49</socrata_id><last_uploaded>2019-04-18T13:06:58</last_uploaded></row><row _id="278" _uuid="56A9C00A-916B-4AE0-86B5-9D0BEA8C64ED" _position="278" _address="https://opendata.camden.gov.uk/resource/_5rhh-fxna/278"><election_name>European Parliamentary Elections - 23 May 2019</election_name><polling_district_name>HB</polling_district_name><organisation>Belsize Community Library</organisation><street>Antrim Road</street><postcode>NW3 4XN</postcode><ward_name>Belsize</ward_name><parliamentary_constituency_name>Hampstead and Kilburn</parliamentary_constituency_name><easting>527523</easting><northing>184823</northing><longitude>-0.162252</longitude><latitude>51.547901</latitude><location human_address="{&quot;address&quot;:&quot;&quot;,&quot;city&quot;:&quot;&quot;,&quot;state&quot;:&quot;&quot;,&quot;zip&quot;:&quot;&quot;}" latitude="51.547901" longitude="-0.162252" needs_recoding="false"/><spatial_accuracy>Local Land And Property Gazetteer</spatial_accuracy><socrata_id>25</socrata_id><last_uploaded>2019-04-18T13:06:58</last_uploaded></row><row _id="279" _uuid="F41A7B7E-65FB-495E-90C0-3195A61AE82D" _position="279" _address="https://opendata.camden.gov.uk/resource/_5rhh-fxna/279"><election_name>European Parliamentary Elections - 23 May 2019</election_name><polling_district_name>NB</polling_district_name><organisation>Samuel Lithgow Youth Centre</organisation><street>Stanhope Street</street><postcode>NW1 3LD</postcode><ward_name>Regent's Park</ward_name><parliamentary_constituency_name>Holborn and St. Pancras</parliamentary_constituency_name><easting>529047</easting><northing>182522</northing><longitude>-0.141129</longitude><latitude>51.526876</latitude><location human_address="{&quot;address&quot;:&quot;&quot;,&quot;city&quot;:&quot;&quot;,&quot;state&quot;:&quot;&quot;,&quot;zip&quot;:&quot;&quot;}" latitude="51.526876" longitude="-0.141129" needs_recoding="false"/><spatial_accuracy>Local Land And Property Gazetteer</spatial_accuracy><socrata_id>45</socrata_id><last_uploaded>2019-04-18T13:06:58</last_uploaded></row><row _id="280" _uuid="85E36520-3500-49C9-8BC5-989B81FDFE62" _position="280" _address="https://opendata.camden.gov.uk/resource/_5rhh-fxna/280"><election_name>European Parliamentary Elections - 23 May 2019</election_name><polling_district_name>LC</polling_district_name><organisation>St Saviours Church Hall</organisation><street>Eton Road</street><postcode>NW3 4SU</postcode><ward_name>Haverstock</ward_name><parliamentary_constituency_name>Holborn and St. Pancras</parliamentary_constituency_name><easting>527808</easting><northing>184489</northing><longitude>-0.158266</longitude><latitude>51.544835</latitude><location human_address="{&quot;address&quot;:&quot;&quot;,&quot;city&quot;:&quot;&quot;,&quot;state&quot;:&quot;&quot;,&quot;zip&quot;:&quot;&quot;}" latitude="51.544835" longitude="-0.158266" needs_recoding="false"/><spatial_accuracy>Local Land And Property Gazetteer</spatial_accuracy><socrata_id>38</socrata_id><last_uploaded>2019-04-18T13:06:58</last_uploaded></row><row _id="281" _uuid="D41D93A2-7DD4-4869-B373-98B75E6D2570" _position="281" _address="https://opendata.camden.gov.uk/resource/_5rhh-fxna/281"><election_name>European Parliamentary Elections - 23 May 2019</election_name><polling_district_name>JB</polling_district_name><organisation>Kentish Town Congregational Church</organisation><street>Kelly Street</street><postcode>NW1 8PH</postcode><ward_name>Kentish Town</ward_name><parliamentary_constituency_name>Holborn and St. Pancras</parliamentary_constituency_name><easting>528859</easting><northing>184651</northing><longitude>-0.143058</longitude><latitude>51.546052</latitude><location human_address="{&quot;address&quot;:&quot;&quot;,&quot;city&quot;:&quot;&quot;,&quot;state&quot;:&quot;&quot;,&quot;zip&quot;:&quot;&quot;}" latitude="51.546052" longitude="-0.143058" needs_recoding="false"/><spatial_accuracy>Local Land And Property Gazetteer</spatial_accuracy><socrata_id>31</socrata_id><last_uploaded>2019-04-18T13:06:58</last_uploaded></row><row _id="282" _uuid="DC4C8A64-F2D0-4D7F-AD64-CAFB52778CB7" _position="282" _address="https://opendata.camden.gov.uk/resource/_5rhh-fxna/282"><election_name>European Parliamentary Elections - 23 May 2019</election_name><polling_district_name>OE</polling_district_name><organisation>N1C Centre</organisation><street>Handyside Street</street><postcode>N1C 4BP</postcode><ward_name>St Pancras and Somers Town</ward_name><parliamentary_constituency_name>Holborn and St. Pancras</parliamentary_constituency_name><easting>529972</easting><northing>183871</northing><longitude>-0.127304</longitude><latitude>51.538787</latitude><location human_address="{&quot;address&quot;:&quot;&quot;,&quot;city&quot;:&quot;&quot;,&quot;state&quot;:&quot;&quot;,&quot;zip&quot;:&quot;&quot;}" latitude="51.538787" longitude="-0.127304" needs_recoding="false"/><spatial_accuracy>Local Land And Property Gazetteer</spatial_accuracy><socrata_id>51</socrata_id><last_uploaded>2019-04-18T13:06:58</last_uploaded></row><row _id="283" _uuid="E627699D-0412-4BA9-8EF6-21FF56D771C8" _position="283" _address="https://opendata.camden.gov.uk/resource/_5rhh-fxna/283"><election_name>European Parliamentary Elections - 23 May 2019</election_name><polling_district_name>GC</polling_district_name><organisation>Swiss Cottage Library (Glass Foyer)</organisation><street>Avenue Road</street><postcode>NW3 3HA</postcode><ward_name>Swiss Cottage</ward_name><parliamentary_constituency_name>Hampstead and Kilburn</parliamentary_constituency_name><easting>526779</easting><northing>184180</northing><longitude>-0.173208</longitude><latitude>51.54229</latitude><location human_address="{&quot;address&quot;:&quot;&quot;,&quot;city&quot;:&quot;&quot;,&quot;state&quot;:&quot;&quot;,&quot;zip&quot;:&quot;&quot;}" latitude="51.54229" longitude="-0.173208" needs_recoding="false"/><spatial_accuracy>Local Land And Property Gazetteer</spatial_accuracy><socrata_id>23</socrata_id><last_uploaded>2019-04-18T13:06:58</last_uploaded></row><row _id="284" _uuid="957353A2-F35A-4D1A-B50E-EABEA9DDFCCB" _position="284" _address="https://opendata.camden.gov.uk/resource/_5rhh-fxna/284"><election_name>European Parliamentary Elections - 23 May 2019</election_name><polling_district_name>OD</polling_district_name><organisation>Ossulston Tenants and Residents Association Hall</organisation><street>Ossulston Street</street><postcode>NW1 1EU</postcode><ward_name>St Pancras and Somers Town</ward_name><parliamentary_constituency_name>Holborn and St. Pancras</parliamentary_constituency_name><easting>529737</easting><northing>182979</northing><longitude>-0.131019</longitude><latitude>51.530825</latitude><location human_address="{&quot;address&quot;:&quot;&quot;,&quot;city&quot;:&quot;&quot;,&quot;state&quot;:&quot;&quot;,&quot;zip&quot;:&quot;&quot;}" latitude="51.530825" longitude="-0.131019" needs_recoding="false"/><spatial_accuracy>Local Land And Property Gazetteer</spatial_accuracy><socrata_id>50</socrata_id><last_uploaded>2019-04-18T13:06:58</last_uploaded></row><row _id="285" _uuid="9D24AC25-2C98-4568-BCDF-A047305C13FF" _position="285" _address="https://opendata.camden.gov.uk/resource/_5rhh-fxna/285"><election_name>European Parliamentary Elections - 23 May 2019</election_name><polling_district_name>OB</polling_district_name><organisation>St Pancras Community Centre</organisation><street>Plender Street</street><postcode>NW1 0LB</postcode><ward_name>St Pancras and Somers Town</ward_name><parliamentary_constituency_name>Holborn and St. Pancras</parliamentary_constituency_name><easting>529288</easting><northing>183600</northing><longitude>-0.137261</longitude><latitude>51.536509</latitude><location human_address="{&quot;address&quot;:&quot;&quot;,&quot;city&quot;:&quot;&quot;,&quot;state&quot;:&quot;&quot;,&quot;zip&quot;:&quot;&quot;}" latitude="51.536509" longitude="-0.137261" needs_recoding="false"/><spatial_accuracy>Local Land And Property Gazetteer</spatial_accuracy><socrata_id>48</socrata_id><last_uploaded>2019-04-18T13:06:58</last_uploaded></row><row _id="286" _uuid="C08F8C64-8302-4951-AEA9-62A6E9769C9B" _position="286" _address="https://opendata.camden.gov.uk/resource/_5rhh-fxna/286"><election_name>European Parliamentary Elections - 23 May 2019</election_name><polling_district_name>HC</polling_district_name><organisation>Bray Tenants Hall</organisation><street>Fellows Road</street><postcode>NW3 3JX</postcode><ward_name>Belsize</ward_name><parliamentary_constituency_name>Hampstead and Kilburn</parliamentary_constituency_name><easting>527247</easting><northing>184337</northing><longitude>-0.166406</longitude><latitude>51.543595</latitude><location human_address="{&quot;address&quot;:&quot;&quot;,&quot;city&quot;:&quot;&quot;,&quot;state&quot;:&quot;&quot;,&quot;zip&quot;:&quot;&quot;}" latitude="51.543595" longitude="-0.166406" needs_recoding="false"/><spatial_accuracy>Local Land And Property Gazetteer</spatial_accuracy><socrata_id>26</socrata_id><last_uploaded>2019-04-18T13:06:58</last_uploaded></row><row _id="287" _uuid="CFA041CF-D51F-41B5-BEED-CF83B989B135" _position="287" _address="https://opendata.camden.gov.uk/resource/_5rhh-fxna/287"><election_name>European Parliamentary Elections - 23 May 2019</election_name><polling_district_name>AC</polling_district_name><organisation>Heath Branch Library</organisation><street>Keats Grove</street><postcode>NW3 2RR</postcode><ward_name>Hampstead Town</ward_name><parliamentary_constituency_name>Hampstead and Kilburn</parliamentary_constituency_name><easting>527089</easting><northing>185656</northing><longitude>-0.168207</longitude><latitude>51.555485</latitude><location human_address="{&quot;address&quot;:&quot;&quot;,&quot;city&quot;:&quot;&quot;,&quot;state&quot;:&quot;&quot;,&quot;zip&quot;:&quot;&quot;}" latitude="51.555485" longitude="-0.168207" needs_recoding="false"/><spatial_accuracy>Local Land And Property Gazetteer</spatial_accuracy><socrata_id>3</socrata_id><last_uploaded>2019-04-18T13:06:58</last_uploaded></row><row _id="288" _uuid="4ED89781-B8BD-4A32-9A24-F65BDBCBDC73" _position="288" _address="https://opendata.camden.gov.uk/resource/_5rhh-fxna/288"><election_name>European Parliamentary Elections - 23 May 2019</election_name><polling_district_name>CB</polling_district_name><organisation>St Luke's Church of England School</organisation><street>Kidderpore Avenue</street><postcode>NW3 7SU</postcode><ward_name>Frognal and Fitzjohns</ward_name><parliamentary_constituency_name>Hampstead and Kilburn</parliamentary_constituency_name><easting>525269</easting><northing>185902</northing><longitude>-0.194358</longitude><latitude>51.558102</latitude><location human_address="{&quot;address&quot;:&quot;&quot;,&quot;city&quot;:&quot;&quot;,&quot;state&quot;:&quot;&quot;,&quot;zip&quot;:&quot;&quot;}" latitude="51.558102" longitude="-0.194358" needs_recoding="false"/><spatial_accuracy>Local Land And Property Gazetteer</spatial_accuracy><socrata_id>8</socrata_id><last_uploaded>2019-04-18T13:06:58</last_uploaded></row><row _id="289" _uuid="D546A32E-2274-47E8-B5EF-A80FA1D8F8C2" _position="289" _address="https://opendata.camden.gov.uk/resource/_5rhh-fxna/289"><election_name>European Parliamentary Elections - 23 May 2019</election_name><polling_district_name>BC</polling_district_name><organisation>Highgate Library Civic and Cultural Centre</organisation><street>Chester Road</street><postcode>N19 5DH</postcode><ward_name>Highgate</ward_name><parliamentary_constituency_name>Holborn and St. Pancras</parliamentary_constituency_name><easting>528739</easting><northing>186620</northing><longitude>-0.144068</longitude><latitude>51.563774</latitude><location human_address="{&quot;address&quot;:&quot;&quot;,&quot;city&quot;:&quot;&quot;,&quot;state&quot;:&quot;&quot;,&quot;zip&quot;:&quot;&quot;}" latitude="51.563774" longitude="-0.144068" needs_recoding="false"/><spatial_accuracy>Local Land And Property Gazetteer</spatial_accuracy><socrata_id>6</socrata_id><last_uploaded>2019-04-18T13:06:58</last_uploaded></row><row _id="290" _uuid="11D6A503-34CF-4A20-8D5E-148EF0EB53F7" _position="290" _address="https://opendata.camden.gov.uk/resource/_5rhh-fxna/290"><election_name>European Parliamentary Elections - 23 May 2019</election_name><polling_district_name>FD</polling_district_name><organisation>Mortimer Crescent Tenants and Residents Association Hall</organisation><street>Mortimer Crescent</street><postcode>NW6 5UR</postcode><ward_name>Kilburn</ward_name><parliamentary_constituency_name>Hampstead and Kilburn</parliamentary_constituency_name><easting>525733</easting><northing>183519</northing><longitude>-0.18852</longitude><latitude>51.536583</latitude><location human_address="{&quot;address&quot;:&quot;&quot;,&quot;city&quot;:&quot;&quot;,&quot;state&quot;:&quot;&quot;,&quot;zip&quot;:&quot;&quot;}" latitude="51.536583" longitude="-0.18852" needs_recoding="false"/><spatial_accuracy>Local Land And Property Gazetteer</spatial_accuracy><socrata_id>20</socrata_id><last_uploaded>2019-04-18T13:06:58</last_uploaded></row><row _id="291" _uuid="69E41817-E927-4D40-A81D-2414AF6EC084" _position="291" _address="https://opendata.camden.gov.uk/resource/_5rhh-fxna/291"><election_name>European Parliamentary Elections - 23 May 2019</election_name><polling_district_name>FC</polling_district_name><organisation>SHELL Centre 2</organisation><street>Boundary Road</street><postcode>NW8 0HU</postcode><ward_name>Kilburn</ward_name><parliamentary_constituency_name>Hampstead and Kilburn</parliamentary_constituency_name><easting>526072</easting><northing>183789</northing><longitude>-0.183538</longitude><latitude>51.538934</latitude><location human_address="{&quot;address&quot;:&quot;&quot;,&quot;city&quot;:&quot;&quot;,&quot;state&quot;:&quot;&quot;,&quot;zip&quot;:&quot;&quot;}" latitude="51.538934" longitude="-0.183538" needs_recoding="false"/><spatial_accuracy>Local Land And Property Gazetteer</spatial_accuracy><socrata_id>19</socrata_id><last_uploaded>2019-04-18T13:06:58</last_uploaded></row><row _id="292" _uuid="71414E37-D463-4CE1-87CA-5452F961709C" _position="292" _address="https://opendata.camden.gov.uk/resource/_5rhh-fxna/292"><election_name>European Parliamentary Elections - 23 May 2019</election_name><polling_district_name>LD</polling_district_name><organisation>Salvation Army Centre</organisation><street>Haverstock Hill</street><postcode>NW3 2BL</postcode><ward_name>Haverstock</ward_name><parliamentary_constituency_name>Holborn and St. Pancras</parliamentary_constituency_name><easting>528192</easting><northing>184441</northing><longitude>-0.152749</longitude><latitude>51.544316</latitude><location human_address="{&quot;address&quot;:&quot;&quot;,&quot;city&quot;:&quot;&quot;,&quot;state&quot;:&quot;&quot;,&quot;zip&quot;:&quot;&quot;}" latitude="51.544316" longitude="-0.152749" needs_recoding="false"/><spatial_accuracy>Local Land And Property Gazetteer</spatial_accuracy><socrata_id>39</socrata_id><last_uploaded>2019-04-18T13:06:58</last_uploaded></row><row _id="293" _uuid="CE1F8014-3751-4264-9D28-8CC0B65AEF52" _position="293" _address="https://opendata.camden.gov.uk/resource/_5rhh-fxna/293"><election_name>European Parliamentary Elections - 23 May 2019</election_name><polling_district_name>IC</polling_district_name><organisation>Queens Crescent Community Centre</organisation><street>Ashdown Crescent</street><postcode>NW5 4QE</postcode><ward_name>Gospel Oak</ward_name><parliamentary_constituency_name>Holborn and St. Pancras</parliamentary_constituency_name><easting>528214</easting><northing>185089</northing><longitude>-0.152195</longitude><latitude>51.550135</latitude><location human_address="{&quot;address&quot;:&quot;&quot;,&quot;city&quot;:&quot;&quot;,&quot;state&quot;:&quot;&quot;,&quot;zip&quot;:&quot;&quot;}" latitude="51.550135" longitude="-0.152195" needs_recoding="false"/><spatial_accuracy>Local Land And Property Gazetteer</spatial_accuracy><socrata_id>29</socrata_id><last_uploaded>2019-04-18T13:06:58</last_uploaded></row><row _id="294" _uuid="61AE183A-4E32-4054-BD47-F1ED841B14C3" _position="294" _address="https://opendata.camden.gov.uk/resource/_5rhh-fxna/294"><election_name>European Parliamentary Elections - 23 May 2019</election_name><polling_district_name>AB</polling_district_name><organisation>Fitzjohn's Primary School</organisation><street>Fitzjohn's Avenue</street><postcode>NW3 6NP</postcode><ward_name>Hampstead Town</ward_name><parliamentary_constituency_name>Hampstead and Kilburn</parliamentary_constituency_name><easting>526614</easting><northing>185439</northing><longitude>-0.175133</longitude><latitude>51.553641</latitude><location human_address="{&quot;address&quot;:&quot;&quot;,&quot;city&quot;:&quot;&quot;,&quot;state&quot;:&quot;&quot;,&quot;zip&quot;:&quot;&quot;}" latitude="51.553641" longitude="-0.175133" needs_recoding="false"/><spatial_accuracy>Local Land And Property Gazetteer</spatial_accuracy><socrata_id>2</socrata_id><last_uploaded>2019-04-18T13:06:58</last_uploaded></row><row _id="295" _uuid="D878B3B7-E66F-4553-9CA9-F4FAA9863383" _position="295" _address="https://opendata.camden.gov.uk/resource/_5rhh-fxna/295"><election_name>European Parliamentary Elections - 23 May 2019</election_name><polling_district_name>LA</polling_district_name><organisation>Maitland Park Gymnasium</organisation><street>Maitland Park Villas</street><postcode>NW3 2EH</postcode><ward_name>Haverstock</ward_name><parliamentary_constituency_name>Holborn and St. Pancras</parliamentary_constituency_name><easting>527835</easting><northing>184912</northing><longitude>-0.157723</longitude><latitude>51.54863</latitude><location human_address="{&quot;address&quot;:&quot;&quot;,&quot;city&quot;:&quot;&quot;,&quot;state&quot;:&quot;&quot;,&quot;zip&quot;:&quot;&quot;}" latitude="51.54863" longitude="-0.157723" needs_recoding="false"/><spatial_accuracy>Local Land And Property Gazetteer</spatial_accuracy><socrata_id>36</socrata_id><last_uploaded>2019-04-18T13:06:58</last_uploaded></row><row _id="296" _uuid="E38EF1CB-D44E-48D8-97D8-F9E76CD75E73" _position="296" _address="https://opendata.camden.gov.uk/resource/_5rhh-fxna/296"><election_name>European Parliamentary Elections - 23 May 2019</election_name><polling_district_name>RA</polling_district_name><organisation>Dragon Hall Community Centre</organisation><street>Stukeley Street</street><postcode>WC2B 5LL</postcode><ward_name>Holborn and Covent Garden</ward_name><parliamentary_constituency_name>Holborn and St. Pancras</parliamentary_constituency_name><easting>530357</easting><northing>181415</northing><longitude>-0.122665</longitude><latitude>51.516627</latitude><location human_address="{&quot;address&quot;:&quot;&quot;,&quot;city&quot;:&quot;&quot;,&quot;state&quot;:&quot;&quot;,&quot;zip&quot;:&quot;&quot;}" latitude="51.516627" longitude="-0.122665" needs_recoding="false"/><spatial_accuracy>Local Land And Property Gazetteer</spatial_accuracy><socrata_id>58</socrata_id><last_uploaded>2019-04-18T13:06:58</last_uploaded></row><row _id="297" _uuid="C34E8632-1FF0-41E8-BC23-43FF69909BFD" _position="297" _address="https://opendata.camden.gov.uk/resource/_5rhh-fxna/297"><election_name>European Parliamentary Elections - 23 May 2019</election_name><polling_district_name>JC</polling_district_name><organisation>Kentish Town Primary School</organisation><street>Islip Street</street><postcode>NW5 2TU</postcode><ward_name>Kentish Town</ward_name><parliamentary_constituency_name>Holborn and St. Pancras</parliamentary_constituency_name><easting>529113</easting><northing>185066</northing><longitude>-0.139245</longitude><latitude>51.549723</latitude><location human_address="{&quot;address&quot;:&quot;&quot;,&quot;city&quot;:&quot;&quot;,&quot;state&quot;:&quot;&quot;,&quot;zip&quot;:&quot;&quot;}" latitude="51.549723" longitude="-0.139245" needs_recoding="false"/><spatial_accuracy>Local Land And Property Gazetteer</spatial_accuracy><socrata_id>32</socrata_id><last_uploaded>2019-04-18T13:06:58</last_uploaded></row><row _id="298" _uuid="357AA811-5C16-4D77-B971-0340714F9DE3" _position="298" _address="https://opendata.camden.gov.uk/resource/_5rhh-fxna/298"><election_name>European Parliamentary Elections - 23 May 2019</election_name><polling_district_name>RC</polling_district_name><organisation>St. Alban's Centre</organisation><street>Leigh Place</street><postcode>EC1N 7AB</postcode><ward_name>Holborn and Covent Garden</ward_name><parliamentary_constituency_name>Holborn and St. Pancras</parliamentary_constituency_name><easting>531199</easting><northing>181793</northing><longitude>-0.110396</longitude><latitude>51.519829</latitude><location human_address="{&quot;address&quot;:&quot;&quot;,&quot;city&quot;:&quot;&quot;,&quot;state&quot;:&quot;&quot;,&quot;zip&quot;:&quot;&quot;}" latitude="51.519829" longitude="-0.110396" needs_recoding="false"/><spatial_accuracy>Local Land And Property Gazetteer</spatial_accuracy><socrata_id>60</socrata_id><last_uploaded>2019-04-18T13:06:58</last_uploaded></row><row _id="299" _uuid="C9E6F6F4-6D91-4166-BFE9-ADA296469B49" _position="299" _address="https://opendata.camden.gov.uk/resource/_5rhh-fxna/299"><election_name>European Parliamentary Elections - 23 May 2019</election_name><polling_district_name>EA</polling_district_name><organisation>West Hampstead Branch Library</organisation><street>Dennington Park Road</street><postcode>NW6 1AU</postcode><ward_name>West Hampstead</ward_name><parliamentary_constituency_name>Hampstead and Kilburn</parliamentary_constituency_name><easting>525481</easting><northing>185041</northing><longitude>-0.191609</longitude><latitude>51.550317</latitude><location human_address="{&quot;address&quot;:&quot;&quot;,&quot;city&quot;:&quot;&quot;,&quot;state&quot;:&quot;&quot;,&quot;zip&quot;:&quot;&quot;}" latitude="51.550317" longitude="-0.191609" needs_recoding="false"/><spatial_accuracy>Local Land And Property Gazetteer</spatial_accuracy><socrata_id>13</socrata_id><last_uploaded>2019-04-18T13:06:58</last_uploaded></row><row _id="300" _uuid="02805F02-B1DA-4B2A-BFB3-58BD3B1DE5E4" _position="300" _address="https://opendata.camden.gov.uk/resource/_5rhh-fxna/300"><election_name>European Parliamentary Elections - 23 May 2019</election_name><polling_district_name>PC</polling_district_name><organisation>Calthorpe Project</organisation><street>Gray's Inn Road</street><postcode>WC1X 8LH</postcode><ward_name>King's Cross</ward_name><parliamentary_constituency_name>Holborn and St. Pancras</parliamentary_constituency_name><easting>530678</easting><northing>182585</northing><longitude>-0.117607</longitude><latitude>51.527067</latitude><location human_address="{&quot;address&quot;:&quot;&quot;,&quot;city&quot;:&quot;&quot;,&quot;state&quot;:&quot;&quot;,&quot;zip&quot;:&quot;&quot;}" latitude="51.527067" longitude="-0.117607" needs_recoding="false"/><spatial_accuracy>Local Land And Property Gazetteer</spatial_accuracy><socrata_id>54</socrata_id><last_uploaded>2019-04-18T13:06:58</last_uploaded></row></row></response>