<response><row><row _id="301" _uuid="F44C56FB-A056-4BB6-B333-F3045EC3AECE" _position="301" _address="https://opendata.camden.gov.uk/resource/_5rhh-fxna/301"><election_name>European Parliamentary Elections - 23 May 2019</election_name><polling_district_name>DA</polling_district_name><organisation>Templar House Social Hall</organisation><street>Shoot-Up Hill</street><postcode>NW2 3TD</postcode><ward_name>Fortune Green</ward_name><parliamentary_constituency_name>Hampstead and Kilburn</parliamentary_constituency_name><easting>524583</easting><northing>184805</northing><longitude>-0.204637</longitude><latitude>51.548395</latitude><location human_address="{&quot;address&quot;:&quot;&quot;,&quot;city&quot;:&quot;&quot;,&quot;state&quot;:&quot;&quot;,&quot;zip&quot;:&quot;&quot;}" latitude="51.548395" longitude="-0.204637" needs_recoding="false"/><spatial_accuracy>Local Land And Property Gazetteer</spatial_accuracy><socrata_id>10</socrata_id><last_uploaded>2019-04-23T08:48:00</last_uploaded></row><row _id="302" _uuid="D8625197-F26E-4E8D-AE54-F0E39A04C4DA" _position="302" _address="https://opendata.camden.gov.uk/resource/_5rhh-fxna/302"><election_name>European Parliamentary Elections - 23 May 2019</election_name><polling_district_name>BC</polling_district_name><organisation>Highgate Library Civic and Cultural Centre</organisation><street>Chester Road</street><postcode>N19 5DH</postcode><ward_name>Highgate</ward_name><parliamentary_constituency_name>Holborn and St. Pancras</parliamentary_constituency_name><easting>528739</easting><northing>186620</northing><longitude>-0.144068</longitude><latitude>51.563774</latitude><location human_address="{&quot;address&quot;:&quot;&quot;,&quot;city&quot;:&quot;&quot;,&quot;state&quot;:&quot;&quot;,&quot;zip&quot;:&quot;&quot;}" latitude="51.563774" longitude="-0.144068" needs_recoding="false"/><spatial_accuracy>Local Land And Property Gazetteer</spatial_accuracy><socrata_id>6</socrata_id><last_uploaded>2019-04-23T08:48:00</last_uploaded></row><row _id="303" _uuid="9C889436-2B19-402A-B11D-A2F3459E0D0F" _position="303" _address="https://opendata.camden.gov.uk/resource/_5rhh-fxna/303"><election_name>European Parliamentary Elections - 23 May 2019</election_name><polling_district_name>FB</polling_district_name><organisation>Abbey Community Centre</organisation><street>Belsize Road</street><postcode>NW6 4DJ</postcode><ward_name>Kilburn</ward_name><parliamentary_constituency_name>Hampstead and Kilburn</parliamentary_constituency_name><easting>525714</easting><northing>183841</northing><longitude>-0.188678</longitude><latitude>51.539481</latitude><location human_address="{&quot;address&quot;:&quot;&quot;,&quot;city&quot;:&quot;&quot;,&quot;state&quot;:&quot;&quot;,&quot;zip&quot;:&quot;&quot;}" latitude="51.539481" longitude="-0.188678" needs_recoding="false"/><spatial_accuracy>Local Land And Property Gazetteer</spatial_accuracy><socrata_id>18</socrata_id><last_uploaded>2019-04-23T08:48:00</last_uploaded></row><row _id="304" _uuid="BD8BAEAC-616B-4205-9350-56C14A1895AF" _position="304" _address="https://opendata.camden.gov.uk/resource/_5rhh-fxna/304"><election_name>European Parliamentary Elections - 23 May 2019</election_name><polling_district_name>MC</polling_district_name><organisation>The Haven</organisation><street>Castlehaven Road</street><postcode>NW1 8RU</postcode><ward_name>Camden Town with Primrose Hill</ward_name><parliamentary_constituency_name>Holborn and St. Pancras</parliamentary_constituency_name><easting>528721</easting><northing>184283</northing><longitude>-0.145182</longitude><latitude>51.542776</latitude><location human_address="{&quot;address&quot;:&quot;&quot;,&quot;city&quot;:&quot;&quot;,&quot;state&quot;:&quot;&quot;,&quot;zip&quot;:&quot;&quot;}" latitude="51.542776" longitude="-0.145182" needs_recoding="false"/><spatial_accuracy>Local Land And Property Gazetteer</spatial_accuracy><socrata_id>42</socrata_id><last_uploaded>2019-04-23T08:48:00</last_uploaded></row><row _id="305" _uuid="0FF556BC-923A-448A-80F6-AEB4DD5538F2" _position="305" _address="https://opendata.camden.gov.uk/resource/_5rhh-fxna/305"><election_name>European Parliamentary Elections - 23 May 2019</election_name><polling_district_name>OE</polling_district_name><organisation>N1C Centre</organisation><street>Handyside Street</street><postcode>N1C 4BP</postcode><ward_name>St Pancras and Somers Town</ward_name><parliamentary_constituency_name>Holborn and St. Pancras</parliamentary_constituency_name><easting>529972</easting><northing>183871</northing><longitude>-0.127304</longitude><latitude>51.538787</latitude><location human_address="{&quot;address&quot;:&quot;&quot;,&quot;city&quot;:&quot;&quot;,&quot;state&quot;:&quot;&quot;,&quot;zip&quot;:&quot;&quot;}" latitude="51.538787" longitude="-0.127304" needs_recoding="false"/><spatial_accuracy>Local Land And Property Gazetteer</spatial_accuracy><socrata_id>51</socrata_id><last_uploaded>2019-04-23T08:48:00</last_uploaded></row><row _id="306" _uuid="AFB1AB3B-819E-4F40-81A6-57BBF727DC78" _position="306" _address="https://opendata.camden.gov.uk/resource/_5rhh-fxna/306"><election_name>European Parliamentary Elections - 23 May 2019</election_name><polling_district_name>GB</polling_district_name><organisation>Crossfield Day Centre</organisation><street>Fairhazel Gardens</street><postcode>NW6 3SG</postcode><ward_name>Swiss Cottage</ward_name><parliamentary_constituency_name>Hampstead and Kilburn</parliamentary_constituency_name><easting>526259</easting><northing>184156</northing><longitude>-0.180711</longitude><latitude>51.54219</latitude><location human_address="{&quot;address&quot;:&quot;&quot;,&quot;city&quot;:&quot;&quot;,&quot;state&quot;:&quot;&quot;,&quot;zip&quot;:&quot;&quot;}" latitude="51.54219" longitude="-0.180711" needs_recoding="false"/><spatial_accuracy>Local Land And Property Gazetteer</spatial_accuracy><socrata_id>22</socrata_id><last_uploaded>2019-04-23T08:48:00</last_uploaded></row><row _id="307" _uuid="004C9932-B459-4AE3-B4EF-8C047ABCF350" _position="307" _address="https://opendata.camden.gov.uk/resource/_5rhh-fxna/307"><election_name>European Parliamentary Elections - 23 May 2019</election_name><polling_district_name>RB</polling_district_name><organisation>Basement, Holborn Library</organisation><street>Theobald's Road</street><postcode>WC1X 8PA</postcode><ward_name>Holborn and Covent Garden</ward_name><parliamentary_constituency_name>Holborn and St. Pancras</parliamentary_constituency_name><easting>530827</easting><northing>181934</northing><longitude>-0.115702</longitude><latitude>51.521182</latitude><location human_address="{&quot;address&quot;:&quot;&quot;,&quot;city&quot;:&quot;&quot;,&quot;state&quot;:&quot;&quot;,&quot;zip&quot;:&quot;&quot;}" latitude="51.521182" longitude="-0.115702" needs_recoding="false"/><spatial_accuracy>Local Land And Property Gazetteer</spatial_accuracy><socrata_id>59</socrata_id><last_uploaded>2019-04-23T08:48:00</last_uploaded></row><row _id="308" _uuid="5CFF4B30-E613-45B1-88BD-062E6F2F6A1B" _position="308" _address="https://opendata.camden.gov.uk/resource/_5rhh-fxna/308"><election_name>European Parliamentary Elections - 23 May 2019</election_name><polling_district_name>NB</polling_district_name><organisation>Samuel Lithgow Youth Centre</organisation><street>Stanhope Street</street><postcode>NW1 3LD</postcode><ward_name>Regent's Park</ward_name><parliamentary_constituency_name>Holborn and St. Pancras</parliamentary_constituency_name><easting>529047</easting><northing>182522</northing><longitude>-0.141129</longitude><latitude>51.526876</latitude><location human_address="{&quot;address&quot;:&quot;&quot;,&quot;city&quot;:&quot;&quot;,&quot;state&quot;:&quot;&quot;,&quot;zip&quot;:&quot;&quot;}" latitude="51.526876" longitude="-0.141129" needs_recoding="false"/><spatial_accuracy>Local Land And Property Gazetteer</spatial_accuracy><socrata_id>45</socrata_id><last_uploaded>2019-04-23T08:48:00</last_uploaded></row><row _id="309" _uuid="CC763A16-1F8A-4CCE-BDB1-0DF1238493E2" _position="309" _address="https://opendata.camden.gov.uk/resource/_5rhh-fxna/309"><election_name>European Parliamentary Elections - 23 May 2019</election_name><polling_district_name>AC</polling_district_name><organisation>Heath Branch Library</organisation><street>Keats Grove</street><postcode>NW3 2RR</postcode><ward_name>Hampstead Town</ward_name><parliamentary_constituency_name>Hampstead and Kilburn</parliamentary_constituency_name><easting>527089</easting><northing>185656</northing><longitude>-0.168207</longitude><latitude>51.555485</latitude><location human_address="{&quot;address&quot;:&quot;&quot;,&quot;city&quot;:&quot;&quot;,&quot;state&quot;:&quot;&quot;,&quot;zip&quot;:&quot;&quot;}" latitude="51.555485" longitude="-0.168207" needs_recoding="false"/><spatial_accuracy>Local Land And Property Gazetteer</spatial_accuracy><socrata_id>3</socrata_id><last_uploaded>2019-04-23T08:48:00</last_uploaded></row><row _id="310" _uuid="715451F0-1969-402A-873E-CD1007903DF9" _position="310" _address="https://opendata.camden.gov.uk/resource/_5rhh-fxna/310"><election_name>European Parliamentary Elections - 23 May 2019</election_name><polling_district_name>CB</polling_district_name><organisation>St Luke's Church of England School</organisation><street>Kidderpore Avenue</street><postcode>NW3 7SU</postcode><ward_name>Frognal and Fitzjohns</ward_name><parliamentary_constituency_name>Hampstead and Kilburn</parliamentary_constituency_name><easting>525269</easting><northing>185902</northing><longitude>-0.194358</longitude><latitude>51.558102</latitude><location human_address="{&quot;address&quot;:&quot;&quot;,&quot;city&quot;:&quot;&quot;,&quot;state&quot;:&quot;&quot;,&quot;zip&quot;:&quot;&quot;}" latitude="51.558102" longitude="-0.194358" needs_recoding="false"/><spatial_accuracy>Local Land And Property Gazetteer</spatial_accuracy><socrata_id>8</socrata_id><last_uploaded>2019-04-23T08:48:00</last_uploaded></row><row _id="311" _uuid="AA756DDD-98F0-413E-9497-444EE74D5050" _position="311" _address="https://opendata.camden.gov.uk/resource/_5rhh-fxna/311"><election_name>European Parliamentary Elections - 23 May 2019</election_name><polling_district_name>FD</polling_district_name><organisation>Mortimer Crescent Tenants and Residents Association Hall</organisation><street>Mortimer Crescent</street><postcode>NW6 5UR</postcode><ward_name>Kilburn</ward_name><parliamentary_constituency_name>Hampstead and Kilburn</parliamentary_constituency_name><easting>525733</easting><northing>183519</northing><longitude>-0.18852</longitude><latitude>51.536583</latitude><location human_address="{&quot;address&quot;:&quot;&quot;,&quot;city&quot;:&quot;&quot;,&quot;state&quot;:&quot;&quot;,&quot;zip&quot;:&quot;&quot;}" latitude="51.536583" longitude="-0.18852" needs_recoding="false"/><spatial_accuracy>Local Land And Property Gazetteer</spatial_accuracy><socrata_id>20</socrata_id><last_uploaded>2019-04-23T08:48:00</last_uploaded></row><row _id="312" _uuid="2FDC5628-54AD-4915-A753-D12F3A21FDD6" _position="312" _address="https://opendata.camden.gov.uk/resource/_5rhh-fxna/312"><election_name>European Parliamentary Elections - 23 May 2019</election_name><polling_district_name>EC</polling_district_name><organisation>Brondesbury Christian Centre</organisation><street>Iverson Road</street><postcode>NW6 2QT</postcode><ward_name>West Hampstead</ward_name><parliamentary_constituency_name>Hampstead and Kilburn</parliamentary_constituency_name><easting>524791</easting><northing>184564</northing><longitude>-0.201724</longitude><latitude>51.546183</latitude><location human_address="{&quot;address&quot;:&quot;&quot;,&quot;city&quot;:&quot;&quot;,&quot;state&quot;:&quot;&quot;,&quot;zip&quot;:&quot;&quot;}" latitude="51.546183" longitude="-0.201724" needs_recoding="false"/><spatial_accuracy>Local Land And Property Gazetteer</spatial_accuracy><socrata_id>15</socrata_id><last_uploaded>2019-04-23T08:48:00</last_uploaded></row><row _id="313" _uuid="D3907128-6317-4FD1-8F3D-59DFBD31C07B" _position="313" _address="https://opendata.camden.gov.uk/resource/_5rhh-fxna/313"><election_name>European Parliamentary Elections - 23 May 2019</election_name><polling_district_name>QC</polling_district_name><organisation>Marchmont Street Community Centre</organisation><street>Marchmont Street</street><postcode>WC1N 1AB</postcode><ward_name>Bloomsbury</ward_name><parliamentary_constituency_name>Holborn and St. Pancras</parliamentary_constituency_name><easting>530161</easting><northing>182379</northing><longitude>-0.125132</longitude><latitude>51.525335</latitude><location human_address="{&quot;address&quot;:&quot;&quot;,&quot;city&quot;:&quot;&quot;,&quot;state&quot;:&quot;&quot;,&quot;zip&quot;:&quot;&quot;}" latitude="51.525335" longitude="-0.125132" needs_recoding="false"/><spatial_accuracy>Local Land And Property Gazetteer</spatial_accuracy><socrata_id>57</socrata_id><last_uploaded>2019-04-23T08:48:00</last_uploaded></row><row _id="314" _uuid="AF1B6565-1026-46B0-A5B2-FA16D1416DFB" _position="314" _address="https://opendata.camden.gov.uk/resource/_5rhh-fxna/314"><election_name>European Parliamentary Elections - 23 May 2019</election_name><polling_district_name>NA</polling_district_name><organisation>Christ Church C E Primary School</organisation><street>Redhill Street</street><postcode>NW1 4BD</postcode><ward_name>Regent's Park</ward_name><parliamentary_constituency_name>Holborn and St. Pancras</parliamentary_constituency_name><easting>528813</easting><northing>182950</northing><longitude>-0.144344</longitude><latitude>51.530776</latitude><location human_address="{&quot;address&quot;:&quot;&quot;,&quot;city&quot;:&quot;&quot;,&quot;state&quot;:&quot;&quot;,&quot;zip&quot;:&quot;&quot;}" latitude="51.530776" longitude="-0.144344" needs_recoding="false"/><spatial_accuracy>Local Land And Property Gazetteer</spatial_accuracy><socrata_id>44</socrata_id><last_uploaded>2019-04-23T08:48:00</last_uploaded></row><row _id="315" _uuid="E203DEF2-C318-4AC5-8C87-6E3500726AB8" _position="315" _address="https://opendata.camden.gov.uk/resource/_5rhh-fxna/315"><election_name>European Parliamentary Elections - 23 May 2019</election_name><polling_district_name>FA</polling_district_name><organisation>Kingsgate Community Centre</organisation><street>Kingsgate Road</street><postcode>NW6 2JH</postcode><ward_name>Kilburn</ward_name><parliamentary_constituency_name>Hampstead and Kilburn</parliamentary_constituency_name><easting>525177</easting><northing>184362</northing><longitude>-0.196232</longitude><latitude>51.544282</latitude><location human_address="{&quot;address&quot;:&quot;&quot;,&quot;city&quot;:&quot;&quot;,&quot;state&quot;:&quot;&quot;,&quot;zip&quot;:&quot;&quot;}" latitude="51.544282" longitude="-0.196232" needs_recoding="false"/><spatial_accuracy>Local Land And Property Gazetteer</spatial_accuracy><socrata_id>17</socrata_id><last_uploaded>2019-04-23T08:48:00</last_uploaded></row><row _id="316" _uuid="A687891E-7615-4F95-AC60-56E016A96B7F" _position="316" _address="https://opendata.camden.gov.uk/resource/_5rhh-fxna/316"><election_name>European Parliamentary Elections - 23 May 2019</election_name><polling_district_name>LB</polling_district_name><organisation>Rhyl Primary School</organisation><street>Rhyl Street</street><postcode>NW5 3HB</postcode><ward_name>Haverstock</ward_name><parliamentary_constituency_name>Holborn and St. Pancras</parliamentary_constituency_name><easting>528335</easting><northing>184803</northing><longitude>-0.150556</longitude><latitude>51.547537</latitude><location human_address="{&quot;address&quot;:&quot;&quot;,&quot;city&quot;:&quot;&quot;,&quot;state&quot;:&quot;&quot;,&quot;zip&quot;:&quot;&quot;}" latitude="51.547537" longitude="-0.150556" needs_recoding="false"/><spatial_accuracy>Local Land And Property Gazetteer</spatial_accuracy><socrata_id>37</socrata_id><last_uploaded>2019-04-23T08:48:00</last_uploaded></row><row _id="317" _uuid="1B22EA7A-B8E4-4988-B529-827CEBE2B999" _position="317" _address="https://opendata.camden.gov.uk/resource/_5rhh-fxna/317"><election_name>European Parliamentary Elections - 23 May 2019</election_name><polling_district_name>PA</polling_district_name><organisation>Camden Chinese Community Centre</organisation><street>Tavistock Place</street><postcode>WC1H 9SN</postcode><ward_name>King's Cross</ward_name><parliamentary_constituency_name>Holborn and St. Pancras</parliamentary_constituency_name><easting>530036</easting><northing>182379</northing><longitude>-0.126933</longitude><latitude>51.525364</latitude><location human_address="{&quot;address&quot;:&quot;&quot;,&quot;city&quot;:&quot;&quot;,&quot;state&quot;:&quot;&quot;,&quot;zip&quot;:&quot;&quot;}" latitude="51.525364" longitude="-0.126933" needs_recoding="false"/><spatial_accuracy>Local Land And Property Gazetteer</spatial_accuracy><socrata_id>52</socrata_id><last_uploaded>2019-04-23T08:48:00</last_uploaded></row><row _id="318" _uuid="2AF4B50A-789B-469F-9603-83434EB077E3" _position="318" _address="https://opendata.camden.gov.uk/resource/_5rhh-fxna/318"><election_name>European Parliamentary Elections - 23 May 2019</election_name><polling_district_name>AA</polling_district_name><organisation>Burgh House</organisation><street>New End Square</street><postcode>NW3 1LT</postcode><ward_name>Hampstead Town</ward_name><parliamentary_constituency_name>Hampstead and Kilburn</parliamentary_constituency_name><easting>526606</easting><northing>185943</northing><longitude>-0.175067</longitude><latitude>51.558172</latitude><location human_address="{&quot;address&quot;:&quot;&quot;,&quot;city&quot;:&quot;&quot;,&quot;state&quot;:&quot;&quot;,&quot;zip&quot;:&quot;&quot;}" latitude="51.558172" longitude="-0.175067" needs_recoding="false"/><spatial_accuracy>Local Land And Property Gazetteer</spatial_accuracy><socrata_id>1</socrata_id><last_uploaded>2019-04-23T08:47:58</last_uploaded></row><row _id="319" _uuid="D7B2C2FA-E48A-4F17-846C-A7E67CA3AC6F" _position="319" _address="https://opendata.camden.gov.uk/resource/_5rhh-fxna/319"><election_name>European Parliamentary Elections - 23 May 2019</election_name><polling_district_name>PB</polling_district_name><organisation>Kings Cross Neighbourhood Community Centre</organisation><street>Argyle Street</street><postcode>WC1H 8EF</postcode><ward_name>King's Cross</ward_name><parliamentary_constituency_name>Holborn and St. Pancras</parliamentary_constituency_name><easting>530153</easting><northing>182764</northing><longitude>-0.125105</longitude><latitude>51.528797</latitude><location human_address="{&quot;address&quot;:&quot;&quot;,&quot;city&quot;:&quot;&quot;,&quot;state&quot;:&quot;&quot;,&quot;zip&quot;:&quot;&quot;}" latitude="51.528797" longitude="-0.125105" needs_recoding="false"/><spatial_accuracy>Local Land And Property Gazetteer</spatial_accuracy><socrata_id>53</socrata_id><last_uploaded>2019-04-23T08:48:00</last_uploaded></row><row _id="320" _uuid="2BE220E1-FBAB-4E9A-8BD1-B2CE6EAEA17A" _position="320" _address="https://opendata.camden.gov.uk/resource/_5rhh-fxna/320"><election_name>European Parliamentary Elections - 23 May 2019</election_name><polling_district_name>EA</polling_district_name><organisation>West Hampstead Branch Library</organisation><street>Dennington Park Road</street><postcode>NW6 1AU</postcode><ward_name>West Hampstead</ward_name><parliamentary_constituency_name>Hampstead and Kilburn</parliamentary_constituency_name><easting>525481</easting><northing>185041</northing><longitude>-0.191609</longitude><latitude>51.550317</latitude><location human_address="{&quot;address&quot;:&quot;&quot;,&quot;city&quot;:&quot;&quot;,&quot;state&quot;:&quot;&quot;,&quot;zip&quot;:&quot;&quot;}" latitude="51.550317" longitude="-0.191609" needs_recoding="false"/><spatial_accuracy>Local Land And Property Gazetteer</spatial_accuracy><socrata_id>13</socrata_id><last_uploaded>2019-04-23T08:48:00</last_uploaded></row><row _id="321" _uuid="4EA30BF9-F013-4FCB-8AD9-E126F7F3017B" _position="321" _address="https://opendata.camden.gov.uk/resource/_5rhh-fxna/321"><election_name>European Parliamentary Elections - 23 May 2019</election_name><polling_district_name>LD</polling_district_name><organisation>Salvation Army Centre</organisation><street>Haverstock Hill</street><postcode>NW3 2BL</postcode><ward_name>Haverstock</ward_name><parliamentary_constituency_name>Holborn and St. Pancras</parliamentary_constituency_name><easting>528192</easting><northing>184441</northing><longitude>-0.152749</longitude><latitude>51.544316</latitude><location human_address="{&quot;address&quot;:&quot;&quot;,&quot;city&quot;:&quot;&quot;,&quot;state&quot;:&quot;&quot;,&quot;zip&quot;:&quot;&quot;}" latitude="51.544316" longitude="-0.152749" needs_recoding="false"/><spatial_accuracy>Local Land And Property Gazetteer</spatial_accuracy><socrata_id>39</socrata_id><last_uploaded>2019-04-23T08:48:00</last_uploaded></row><row _id="322" _uuid="BB3785EF-6403-4B1A-98A1-DE6A11743F81" _position="322" _address="https://opendata.camden.gov.uk/resource/_5rhh-fxna/322"><election_name>European Parliamentary Elections - 23 May 2019</election_name><polling_district_name>RA</polling_district_name><organisation>Dragon Hall Community Centre</organisation><street>Stukeley Street</street><postcode>WC2B 5LL</postcode><ward_name>Holborn and Covent Garden</ward_name><parliamentary_constituency_name>Holborn and St. Pancras</parliamentary_constituency_name><easting>530357</easting><northing>181415</northing><longitude>-0.122665</longitude><latitude>51.516627</latitude><location human_address="{&quot;address&quot;:&quot;&quot;,&quot;city&quot;:&quot;&quot;,&quot;state&quot;:&quot;&quot;,&quot;zip&quot;:&quot;&quot;}" latitude="51.516627" longitude="-0.122665" needs_recoding="false"/><spatial_accuracy>Local Land And Property Gazetteer</spatial_accuracy><socrata_id>58</socrata_id><last_uploaded>2019-04-23T08:48:00</last_uploaded></row><row _id="323" _uuid="0633E47A-0092-4385-9672-C9DA1DF7350C" _position="323" _address="https://opendata.camden.gov.uk/resource/_5rhh-fxna/323"><election_name>European Parliamentary Elections - 23 May 2019</election_name><polling_district_name>CC</polling_district_name><organisation>Holy Trinity Church Hall</organisation><street>Sumpter Close</street><postcode>NW3 5HR</postcode><ward_name>Frognal and Fitzjohns</ward_name><parliamentary_constituency_name>Hampstead and Kilburn</parliamentary_constituency_name><easting>526371</easting><northing>184697</northing><longitude>-0.178903</longitude><latitude>51.547027</latitude><location human_address="{&quot;address&quot;:&quot;&quot;,&quot;city&quot;:&quot;&quot;,&quot;state&quot;:&quot;&quot;,&quot;zip&quot;:&quot;&quot;}" latitude="51.547027" longitude="-0.178903" needs_recoding="false"/><spatial_accuracy>Local Land And Property Gazetteer</spatial_accuracy><socrata_id>9</socrata_id><last_uploaded>2019-04-23T08:48:00</last_uploaded></row><row _id="324" _uuid="083B680C-897C-46AA-BA06-913C5D3AF9E3" _position="324" _address="https://opendata.camden.gov.uk/resource/_5rhh-fxna/324"><election_name>European Parliamentary Elections - 23 May 2019</election_name><polling_district_name>MD</polling_district_name><organisation>Choices</organisation><street>Carol Street</street><postcode>NW1 0HT</postcode><ward_name>Camden Town with Primrose Hill</ward_name><parliamentary_constituency_name>Holborn and St. Pancras</parliamentary_constituency_name><easting>529041</easting><northing>183859</northing><longitude>-0.140725</longitude><latitude>51.538893</latitude><location human_address="{&quot;address&quot;:&quot;&quot;,&quot;city&quot;:&quot;&quot;,&quot;state&quot;:&quot;&quot;,&quot;zip&quot;:&quot;&quot;}" latitude="51.538893" longitude="-0.140725" needs_recoding="false"/><spatial_accuracy>Local Land And Property Gazetteer</spatial_accuracy><socrata_id>43</socrata_id><last_uploaded>2019-04-23T08:48:00</last_uploaded></row><row _id="325" _uuid="883C5A39-D1E8-428C-987E-5E191EB0A8D9" _position="325" _address="https://opendata.camden.gov.uk/resource/_5rhh-fxna/325"><election_name>European Parliamentary Elections - 23 May 2019</election_name><polling_district_name>GA</polling_district_name><organisation>St Marys Community Hall</organisation><street>Abbey Road</street><postcode>NW6 4SR</postcode><ward_name>Swiss Cottage</ward_name><parliamentary_constituency_name>Hampstead and Kilburn</parliamentary_constituency_name><easting>525712</easting><northing>184035</northing><longitude>-0.188638</longitude><latitude>51.541225</latitude><location human_address="{&quot;address&quot;:&quot;&quot;,&quot;city&quot;:&quot;&quot;,&quot;state&quot;:&quot;&quot;,&quot;zip&quot;:&quot;&quot;}" latitude="51.541225" longitude="-0.188638" needs_recoding="false"/><spatial_accuracy>Local Land And Property Gazetteer</spatial_accuracy><socrata_id>21</socrata_id><last_uploaded>2019-04-23T08:48:00</last_uploaded></row><row _id="326" _uuid="6E6172C0-40D1-4035-AB31-7FF8774A3A17" _position="326" _address="https://opendata.camden.gov.uk/resource/_5rhh-fxna/326"><election_name>European Parliamentary Elections - 23 May 2019</election_name><polling_district_name>EB</polling_district_name><organisation>Lymington Road Residents Association Hall</organisation><street>Dresden Close</street><postcode>NW6 1XP</postcode><ward_name>West Hampstead</ward_name><parliamentary_constituency_name>Hampstead and Kilburn</parliamentary_constituency_name><easting>525982</easting><northing>185031</northing><longitude>-0.18439</longitude><latitude>51.550116</latitude><location human_address="{&quot;address&quot;:&quot;&quot;,&quot;city&quot;:&quot;&quot;,&quot;state&quot;:&quot;&quot;,&quot;zip&quot;:&quot;&quot;}" latitude="51.550116" longitude="-0.18439" needs_recoding="false"/><spatial_accuracy>Local Land And Property Gazetteer</spatial_accuracy><socrata_id>14</socrata_id><last_uploaded>2019-04-23T08:48:00</last_uploaded></row><row _id="327" _uuid="9032C5E8-2CB5-45A3-BE0B-ABB2EE262CCD" _position="327" _address="https://opendata.camden.gov.uk/resource/_5rhh-fxna/327"><election_name>European Parliamentary Elections - 23 May 2019</election_name><polling_district_name>ED</polling_district_name><organisation>St James Hall</organisation><street>Sherriff Road</street><postcode>NW6 2AP</postcode><ward_name>West Hampstead</ward_name><parliamentary_constituency_name>Hampstead and Kilburn</parliamentary_constituency_name><easting>525449</easting><northing>184541</northing><longitude>-0.192248</longitude><latitude>51.545831</latitude><location human_address="{&quot;address&quot;:&quot;&quot;,&quot;city&quot;:&quot;&quot;,&quot;state&quot;:&quot;&quot;,&quot;zip&quot;:&quot;&quot;}" latitude="51.545831" longitude="-0.192248" needs_recoding="false"/><spatial_accuracy>Local Land And Property Gazetteer</spatial_accuracy><socrata_id>16</socrata_id><last_uploaded>2019-04-23T08:48:00</last_uploaded></row><row _id="328" _uuid="11403DA2-2DAB-4683-9533-A269F69EF274" _position="328" _address="https://opendata.camden.gov.uk/resource/_5rhh-fxna/328"><election_name>European Parliamentary Elections - 23 May 2019</election_name><polling_district_name>LA</polling_district_name><organisation>Maitland Park Gymnasium</organisation><street>Maitland Park Villas</street><postcode>NW3 2EH</postcode><ward_name>Haverstock</ward_name><parliamentary_constituency_name>Holborn and St. Pancras</parliamentary_constituency_name><easting>527835</easting><northing>184912</northing><longitude>-0.157723</longitude><latitude>51.54863</latitude><location human_address="{&quot;address&quot;:&quot;&quot;,&quot;city&quot;:&quot;&quot;,&quot;state&quot;:&quot;&quot;,&quot;zip&quot;:&quot;&quot;}" latitude="51.54863" longitude="-0.157723" needs_recoding="false"/><spatial_accuracy>Local Land And Property Gazetteer</spatial_accuracy><socrata_id>36</socrata_id><last_uploaded>2019-04-23T08:48:00</last_uploaded></row><row _id="329" _uuid="CCB20A03-17C8-49F0-BD98-805DC33EFF52" _position="329" _address="https://opendata.camden.gov.uk/resource/_5rhh-fxna/329"><election_name>European Parliamentary Elections - 23 May 2019</election_name><polling_district_name>MA</polling_district_name><organisation>Primrose Hill Community Centre</organisation><street>Hopkinson's Place</street><postcode>NW1 8TN</postcode><ward_name>Camden Town with Primrose Hill</ward_name><parliamentary_constituency_name>Holborn and St. Pancras</parliamentary_constituency_name><easting>528021</easting><northing>183970</northing><longitude>-0.155384</longitude><latitude>51.540122</latitude><location human_address="{&quot;address&quot;:&quot;&quot;,&quot;city&quot;:&quot;&quot;,&quot;state&quot;:&quot;&quot;,&quot;zip&quot;:&quot;&quot;}" latitude="51.540122" longitude="-0.155384" needs_recoding="false"/><spatial_accuracy>Local Land And Property Gazetteer</spatial_accuracy><socrata_id>40</socrata_id><last_uploaded>2019-04-23T08:48:00</last_uploaded></row><row _id="330" _uuid="C1B98490-7C39-41BD-885B-D78FEFDE3A9E" _position="330" _address="https://opendata.camden.gov.uk/resource/_5rhh-fxna/330"><election_name>European Parliamentary Elections - 23 May 2019</election_name><polling_district_name>QB</polling_district_name><organisation>Ramsay Hall</organisation><street>Maple Street</street><postcode>W1T 5HB</postcode><ward_name>Bloomsbury</ward_name><parliamentary_constituency_name>Holborn and St. Pancras</parliamentary_constituency_name><easting>529238</easting><northing>182046</northing><longitude>-0.138551</longitude><latitude>51.522554</latitude><location human_address="{&quot;address&quot;:&quot;&quot;,&quot;city&quot;:&quot;&quot;,&quot;state&quot;:&quot;&quot;,&quot;zip&quot;:&quot;&quot;}" latitude="51.522554" longitude="-0.138551" needs_recoding="false"/><spatial_accuracy>Local Land And Property Gazetteer</spatial_accuracy><socrata_id>56</socrata_id><last_uploaded>2019-04-23T08:48:00</last_uploaded></row><row _id="331" _uuid="61C4F6AA-7ED5-4DF4-9EAD-D627B2E47098" _position="331" _address="https://opendata.camden.gov.uk/resource/_5rhh-fxna/331"><election_name>European Parliamentary Elections - 23 May 2019</election_name><polling_district_name>BA</polling_district_name><organisation>Holly Lodge Community Centre</organisation><street>Makepeace Avenue</street><postcode>N6 6HL</postcode><ward_name>Highgate</ward_name><parliamentary_constituency_name>Holborn and St. Pancras</parliamentary_constituency_name><easting>528445</easting><northing>186710</northing><longitude>-0.148274</longitude><latitude>51.56465</latitude><location human_address="{&quot;address&quot;:&quot;&quot;,&quot;city&quot;:&quot;&quot;,&quot;state&quot;:&quot;&quot;,&quot;zip&quot;:&quot;&quot;}" latitude="51.56465" longitude="-0.148274" needs_recoding="false"/><spatial_accuracy>Local Land And Property Gazetteer</spatial_accuracy><socrata_id>4</socrata_id><last_uploaded>2019-04-23T08:48:00</last_uploaded></row><row _id="332" _uuid="E5049289-45D1-4773-8F4B-92DF0FC3E917" _position="332" _address="https://opendata.camden.gov.uk/resource/_5rhh-fxna/332"><election_name>European Parliamentary Elections - 23 May 2019</election_name><polling_district_name>HA</polling_district_name><organisation>Belsize Community Library</organisation><street>Antrim Road</street><postcode>NW3 4XN</postcode><ward_name>Belsize</ward_name><parliamentary_constituency_name>Hampstead and Kilburn</parliamentary_constituency_name><easting>527523</easting><northing>184823</northing><longitude>-0.162252</longitude><latitude>51.547901</latitude><location human_address="{&quot;address&quot;:&quot;&quot;,&quot;city&quot;:&quot;&quot;,&quot;state&quot;:&quot;&quot;,&quot;zip&quot;:&quot;&quot;}" latitude="51.547901" longitude="-0.162252" needs_recoding="false"/><spatial_accuracy>Local Land And Property Gazetteer</spatial_accuracy><socrata_id>24</socrata_id><last_uploaded>2019-04-23T08:48:00</last_uploaded></row><row _id="333" _uuid="063CA9E7-1AF5-4964-A356-D4E41C53B670" _position="333" _address="https://opendata.camden.gov.uk/resource/_5rhh-fxna/333"><election_name>European Parliamentary Elections - 23 May 2019</election_name><polling_district_name>IC</polling_district_name><organisation>Queens Crescent Community Centre</organisation><street>Ashdown Crescent</street><postcode>NW5 4QE</postcode><ward_name>Gospel Oak</ward_name><parliamentary_constituency_name>Holborn and St. Pancras</parliamentary_constituency_name><easting>528214</easting><northing>185089</northing><longitude>-0.152195</longitude><latitude>51.550135</latitude><location human_address="{&quot;address&quot;:&quot;&quot;,&quot;city&quot;:&quot;&quot;,&quot;state&quot;:&quot;&quot;,&quot;zip&quot;:&quot;&quot;}" latitude="51.550135" longitude="-0.152195" needs_recoding="false"/><spatial_accuracy>Local Land And Property Gazetteer</spatial_accuracy><socrata_id>29</socrata_id><last_uploaded>2019-04-23T08:48:00</last_uploaded></row><row _id="334" _uuid="D5451BE8-7A89-41C2-9134-424013ED8208" _position="334" _address="https://opendata.camden.gov.uk/resource/_5rhh-fxna/334"><election_name>European Parliamentary Elections - 23 May 2019</election_name><polling_district_name>JB</polling_district_name><organisation>Kentish Town Congregational Church</organisation><street>Kelly Street</street><postcode>NW1 8PH</postcode><ward_name>Kentish Town</ward_name><parliamentary_constituency_name>Holborn and St. Pancras</parliamentary_constituency_name><easting>528859</easting><northing>184651</northing><longitude>-0.143058</longitude><latitude>51.546052</latitude><location human_address="{&quot;address&quot;:&quot;&quot;,&quot;city&quot;:&quot;&quot;,&quot;state&quot;:&quot;&quot;,&quot;zip&quot;:&quot;&quot;}" latitude="51.546052" longitude="-0.143058" needs_recoding="false"/><spatial_accuracy>Local Land And Property Gazetteer</spatial_accuracy><socrata_id>31</socrata_id><last_uploaded>2019-04-23T08:48:00</last_uploaded></row><row _id="335" _uuid="23DEDD9F-BDEE-4723-B1A7-0E69EFB2410B" _position="335" _address="https://opendata.camden.gov.uk/resource/_5rhh-fxna/335"><election_name>European Parliamentary Elections - 23 May 2019</election_name><polling_district_name>HC</polling_district_name><organisation>Bray Tenants Hall</organisation><street>Fellows Road</street><postcode>NW3 3JX</postcode><ward_name>Belsize</ward_name><parliamentary_constituency_name>Hampstead and Kilburn</parliamentary_constituency_name><easting>527247</easting><northing>184337</northing><longitude>-0.166406</longitude><latitude>51.543595</latitude><location human_address="{&quot;address&quot;:&quot;&quot;,&quot;city&quot;:&quot;&quot;,&quot;state&quot;:&quot;&quot;,&quot;zip&quot;:&quot;&quot;}" latitude="51.543595" longitude="-0.166406" needs_recoding="false"/><spatial_accuracy>Local Land And Property Gazetteer</spatial_accuracy><socrata_id>26</socrata_id><last_uploaded>2019-04-23T08:48:00</last_uploaded></row><row _id="336" _uuid="64D88A96-FA64-4B4D-BCC5-D4174BFAF024" _position="336" _address="https://opendata.camden.gov.uk/resource/_5rhh-fxna/336"><election_name>European Parliamentary Elections - 23 May 2019</election_name><polling_district_name>OD</polling_district_name><organisation>Ossulston Tenants and Residents Association Hall</organisation><street>Ossulston Street</street><postcode>NW1 1EU</postcode><ward_name>St Pancras and Somers Town</ward_name><parliamentary_constituency_name>Holborn and St. Pancras</parliamentary_constituency_name><easting>529737</easting><northing>182979</northing><longitude>-0.131019</longitude><latitude>51.530825</latitude><location human_address="{&quot;address&quot;:&quot;&quot;,&quot;city&quot;:&quot;&quot;,&quot;state&quot;:&quot;&quot;,&quot;zip&quot;:&quot;&quot;}" latitude="51.530825" longitude="-0.131019" needs_recoding="false"/><spatial_accuracy>Local Land And Property Gazetteer</spatial_accuracy><socrata_id>50</socrata_id><last_uploaded>2019-04-23T08:48:00</last_uploaded></row><row _id="337" _uuid="3F5B9D9D-01C2-41F7-AD20-BC0A0EEFFA62" _position="337" _address="https://opendata.camden.gov.uk/resource/_5rhh-fxna/337"><election_name>European Parliamentary Elections - 23 May 2019</election_name><polling_district_name>IA</polling_district_name><organisation>Gospel Oak Methodist Church</organisation><street>Agincourt Road</street><postcode>NW3 2NT</postcode><ward_name>Gospel Oak</ward_name><parliamentary_constituency_name>Holborn and St. Pancras</parliamentary_constituency_name><easting>527746</easting><northing>185495</northing><longitude>-0.158794</longitude><latitude>51.55389</latitude><location human_address="{&quot;address&quot;:&quot;&quot;,&quot;city&quot;:&quot;&quot;,&quot;state&quot;:&quot;&quot;,&quot;zip&quot;:&quot;&quot;}" latitude="51.55389" longitude="-0.158794" needs_recoding="false"/><spatial_accuracy>Local Land And Property Gazetteer</spatial_accuracy><socrata_id>27</socrata_id><last_uploaded>2019-04-23T08:48:00</last_uploaded></row><row _id="338" _uuid="1DE0F8D9-323E-4A69-9317-D8987AFC90B7" _position="338" _address="https://opendata.camden.gov.uk/resource/_5rhh-fxna/338"><election_name>European Parliamentary Elections - 23 May 2019</election_name><polling_district_name>LC</polling_district_name><organisation>St Saviours Church Hall</organisation><street>Eton Road</street><postcode>NW3 4SU</postcode><ward_name>Haverstock</ward_name><parliamentary_constituency_name>Holborn and St. Pancras</parliamentary_constituency_name><easting>527808</easting><northing>184489</northing><longitude>-0.158266</longitude><latitude>51.544835</latitude><location human_address="{&quot;address&quot;:&quot;&quot;,&quot;city&quot;:&quot;&quot;,&quot;state&quot;:&quot;&quot;,&quot;zip&quot;:&quot;&quot;}" latitude="51.544835" longitude="-0.158266" needs_recoding="false"/><spatial_accuracy>Local Land And Property Gazetteer</spatial_accuracy><socrata_id>38</socrata_id><last_uploaded>2019-04-23T08:48:00</last_uploaded></row><row _id="339" _uuid="989BC165-268C-46CF-865F-24F58DB2DFE5" _position="339" _address="https://opendata.camden.gov.uk/resource/_5rhh-fxna/339"><election_name>European Parliamentary Elections - 23 May 2019</election_name><polling_district_name>JA</polling_district_name><organisation>Rainbow Nursery</organisation><street>Lupton Street</street><postcode>NW5 2JB</postcode><ward_name>Kentish Town</ward_name><parliamentary_constituency_name>Holborn and St. Pancras</parliamentary_constituency_name><easting>529179</easting><northing>185588</northing><longitude>-0.138102</longitude><latitude>51.554399</latitude><location human_address="{&quot;address&quot;:&quot;&quot;,&quot;city&quot;:&quot;&quot;,&quot;state&quot;:&quot;&quot;,&quot;zip&quot;:&quot;&quot;}" latitude="51.554399" longitude="-0.138102" needs_recoding="false"/><spatial_accuracy>Local Land And Property Gazetteer</spatial_accuracy><socrata_id>30</socrata_id><last_uploaded>2019-04-23T08:48:00</last_uploaded></row><row _id="340" _uuid="B1AEE34C-2C57-4F32-BC36-71844AC4C841" _position="340" _address="https://opendata.camden.gov.uk/resource/_5rhh-fxna/340"><election_name>European Parliamentary Elections - 23 May 2019</election_name><polling_district_name>BB</polling_district_name><organisation>Highgate Road Chapel</organisation><street>Chetwynd Road</street><postcode>NW5 1BU</postcode><ward_name>Highgate</ward_name><parliamentary_constituency_name>Holborn and St. Pancras</parliamentary_constituency_name><easting>528658</easting><northing>185859</northing><longitude>-0.145514</longitude><latitude>51.556954</latitude><location human_address="{&quot;address&quot;:&quot;&quot;,&quot;city&quot;:&quot;&quot;,&quot;state&quot;:&quot;&quot;,&quot;zip&quot;:&quot;&quot;}" latitude="51.556954" longitude="-0.145514" needs_recoding="false"/><spatial_accuracy>Local Land And Property Gazetteer</spatial_accuracy><socrata_id>5</socrata_id><last_uploaded>2019-04-23T08:48:00</last_uploaded></row><row _id="341" _uuid="D4CA78B2-6DF7-4969-A549-94170C4EE82F" _position="341" _address="https://opendata.camden.gov.uk/resource/_5rhh-fxna/341"><election_name>European Parliamentary Elections - 23 May 2019</election_name><polling_district_name>QA</polling_district_name><organisation>Ramsay Hall</organisation><street>Maple Street</street><postcode>W1T 5HB</postcode><ward_name>Bloomsbury</ward_name><parliamentary_constituency_name>Holborn and St. Pancras</parliamentary_constituency_name><easting>529238</easting><northing>182046</northing><longitude>-0.138551</longitude><latitude>51.522554</latitude><location human_address="{&quot;address&quot;:&quot;&quot;,&quot;city&quot;:&quot;&quot;,&quot;state&quot;:&quot;&quot;,&quot;zip&quot;:&quot;&quot;}" latitude="51.522554" longitude="-0.138551" needs_recoding="false"/><spatial_accuracy>Local Land And Property Gazetteer</spatial_accuracy><socrata_id>55</socrata_id><last_uploaded>2019-04-23T08:48:00</last_uploaded></row><row _id="342" _uuid="9EEAF8C9-CA68-4EED-B337-289604779A1F" _position="342" _address="https://opendata.camden.gov.uk/resource/_5rhh-fxna/342"><election_name>European Parliamentary Elections - 23 May 2019</election_name><polling_district_name>OC</polling_district_name><organisation>Godwin and Crowndale Community Hall</organisation><street>Crowndale Road</street><postcode>NW1 1NN</postcode><ward_name>St Pancras and Somers Town</ward_name><parliamentary_constituency_name>Holborn and St. Pancras</parliamentary_constituency_name><easting>529435</easting><northing>183416</northing><longitude>-0.13521</longitude><latitude>51.534821</latitude><location human_address="{&quot;address&quot;:&quot;&quot;,&quot;city&quot;:&quot;&quot;,&quot;state&quot;:&quot;&quot;,&quot;zip&quot;:&quot;&quot;}" latitude="51.534821" longitude="-0.13521" needs_recoding="false"/><spatial_accuracy>Local Land And Property Gazetteer</spatial_accuracy><socrata_id>49</socrata_id><last_uploaded>2019-04-23T08:48:00</last_uploaded></row><row _id="343" _uuid="D05045CF-7775-4BEF-8548-E6AA8CAFFE4D" _position="343" _address="https://opendata.camden.gov.uk/resource/_5rhh-fxna/343"><election_name>European Parliamentary Elections - 23 May 2019</election_name><polling_district_name>DC</polling_district_name><organisation>Emmanuel Church</organisation><street>Lyncroft Gardens</street><postcode>NW6 1JU</postcode><ward_name>Fortune Green</ward_name><parliamentary_constituency_name>Hampstead and Kilburn</parliamentary_constituency_name><easting>525413</easting><northing>185302</northing><longitude>-0.192496</longitude><latitude>51.552678</latitude><location human_address="{&quot;address&quot;:&quot;&quot;,&quot;city&quot;:&quot;&quot;,&quot;state&quot;:&quot;&quot;,&quot;zip&quot;:&quot;&quot;}" latitude="51.552678" longitude="-0.192496" needs_recoding="false"/><spatial_accuracy>Local Land And Property Gazetteer</spatial_accuracy><socrata_id>12</socrata_id><last_uploaded>2019-04-23T08:48:00</last_uploaded></row><row _id="344" _uuid="B1FB99C3-EFF9-4A7A-A290-746324E51F99" _position="344" _address="https://opendata.camden.gov.uk/resource/_5rhh-fxna/344"><election_name>European Parliamentary Elections - 23 May 2019</election_name><polling_district_name>NC</polling_district_name><organisation>Camden Council</organisation><street>Eversholt Street</street><postcode>NW1 1BD</postcode><ward_name>Regent's Park</ward_name><parliamentary_constituency_name>Holborn and St. Pancras</parliamentary_constituency_name><easting>529261</easting><northing>183348</northing><longitude>-0.137742</longitude><latitude>51.53425</latitude><location human_address="{&quot;address&quot;:&quot;&quot;,&quot;city&quot;:&quot;&quot;,&quot;state&quot;:&quot;&quot;,&quot;zip&quot;:&quot;&quot;}" latitude="51.53425" longitude="-0.137742" needs_recoding="false"/><spatial_accuracy>Local Land And Property Gazetteer</spatial_accuracy><socrata_id>46</socrata_id><last_uploaded>2019-04-23T08:48:00</last_uploaded></row><row _id="345" _uuid="F9A0135D-8443-4699-A088-252DC707B4F7" _position="345" _address="https://opendata.camden.gov.uk/resource/_5rhh-fxna/345"><election_name>European Parliamentary Elections - 23 May 2019</election_name><polling_district_name>MB</polling_district_name><organisation>The Haven</organisation><street>Castlehaven Road</street><postcode>NW1 8RU</postcode><ward_name>Camden Town with Primrose Hill</ward_name><parliamentary_constituency_name>Holborn and St. Pancras</parliamentary_constituency_name><easting>528721</easting><northing>184283</northing><longitude>-0.145182</longitude><latitude>51.542776</latitude><location human_address="{&quot;address&quot;:&quot;&quot;,&quot;city&quot;:&quot;&quot;,&quot;state&quot;:&quot;&quot;,&quot;zip&quot;:&quot;&quot;}" latitude="51.542776" longitude="-0.145182" needs_recoding="false"/><spatial_accuracy>Local Land And Property Gazetteer</spatial_accuracy><socrata_id>41</socrata_id><last_uploaded>2019-04-23T08:48:00</last_uploaded></row><row _id="346" _uuid="C74F652D-22D8-4BED-994D-6750EBD8DA30" _position="346" _address="https://opendata.camden.gov.uk/resource/_5rhh-fxna/346"><election_name>European Parliamentary Elections - 23 May 2019</election_name><polling_district_name>KC</polling_district_name><organisation>Maiden Lane Community Centre</organisation><street>St Paul's Crescent</street><postcode>NW1 9XZ</postcode><ward_name>Cantelowes</ward_name><parliamentary_constituency_name>Holborn and St. Pancras</parliamentary_constituency_name><easting>529860</easting><northing>184152</northing><longitude>-0.128815</longitude><latitude>51.541338</latitude><location human_address="{&quot;address&quot;:&quot;&quot;,&quot;city&quot;:&quot;&quot;,&quot;state&quot;:&quot;&quot;,&quot;zip&quot;:&quot;&quot;}" latitude="51.541338" longitude="-0.128815" needs_recoding="false"/><spatial_accuracy>Local Land And Property Gazetteer</spatial_accuracy><socrata_id>35</socrata_id><last_uploaded>2019-04-23T08:48:00</last_uploaded></row><row _id="347" _uuid="FD6EE41E-DAFE-4704-8C1C-D2B148FD8E66" _position="347" _address="https://opendata.camden.gov.uk/resource/_5rhh-fxna/347"><election_name>European Parliamentary Elections - 23 May 2019</election_name><polling_district_name>RC</polling_district_name><organisation>St. Alban's Centre</organisation><street>Leigh Place</street><postcode>EC1N 7AB</postcode><ward_name>Holborn and Covent Garden</ward_name><parliamentary_constituency_name>Holborn and St. Pancras</parliamentary_constituency_name><easting>531199</easting><northing>181793</northing><longitude>-0.110396</longitude><latitude>51.519829</latitude><location human_address="{&quot;address&quot;:&quot;&quot;,&quot;city&quot;:&quot;&quot;,&quot;state&quot;:&quot;&quot;,&quot;zip&quot;:&quot;&quot;}" latitude="51.519829" longitude="-0.110396" needs_recoding="false"/><spatial_accuracy>Local Land And Property Gazetteer</spatial_accuracy><socrata_id>60</socrata_id><last_uploaded>2019-04-23T08:48:00</last_uploaded></row><row _id="348" _uuid="ACC59B5F-CF38-42FE-995B-A7EA780EDBA4" _position="348" _address="https://opendata.camden.gov.uk/resource/_5rhh-fxna/348"><election_name>European Parliamentary Elections - 23 May 2019</election_name><polling_district_name>GC</polling_district_name><organisation>Swiss Cottage Library (Glass Foyer)</organisation><street>Avenue Road</street><postcode>NW3 3HA</postcode><ward_name>Swiss Cottage</ward_name><parliamentary_constituency_name>Hampstead and Kilburn</parliamentary_constituency_name><easting>526779</easting><northing>184180</northing><longitude>-0.173208</longitude><latitude>51.54229</latitude><location human_address="{&quot;address&quot;:&quot;&quot;,&quot;city&quot;:&quot;&quot;,&quot;state&quot;:&quot;&quot;,&quot;zip&quot;:&quot;&quot;}" latitude="51.54229" longitude="-0.173208" needs_recoding="false"/><spatial_accuracy>Local Land And Property Gazetteer</spatial_accuracy><socrata_id>23</socrata_id><last_uploaded>2019-04-23T08:48:00</last_uploaded></row><row _id="349" _uuid="B1645D79-CE26-4C05-9EB5-B5D755C9DDD8" _position="349" _address="https://opendata.camden.gov.uk/resource/_5rhh-fxna/349"><election_name>European Parliamentary Elections - 23 May 2019</election_name><polling_district_name>FC</polling_district_name><organisation>SHELL Centre 2</organisation><street>Boundary Road</street><postcode>NW8 0HU</postcode><ward_name>Kilburn</ward_name><parliamentary_constituency_name>Hampstead and Kilburn</parliamentary_constituency_name><easting>526072</easting><northing>183789</northing><longitude>-0.183538</longitude><latitude>51.538934</latitude><location human_address="{&quot;address&quot;:&quot;&quot;,&quot;city&quot;:&quot;&quot;,&quot;state&quot;:&quot;&quot;,&quot;zip&quot;:&quot;&quot;}" latitude="51.538934" longitude="-0.183538" needs_recoding="false"/><spatial_accuracy>Local Land And Property Gazetteer</spatial_accuracy><socrata_id>19</socrata_id><last_uploaded>2019-04-23T08:48:00</last_uploaded></row><row _id="350" _uuid="B1310694-4546-41D1-98D0-323508B73C1B" _position="350" _address="https://opendata.camden.gov.uk/resource/_5rhh-fxna/350"><election_name>European Parliamentary Elections - 23 May 2019</election_name><polling_district_name>AB</polling_district_name><organisation>Fitzjohn's Primary School</organisation><street>Fitzjohn's Avenue</street><postcode>NW3 6NP</postcode><ward_name>Hampstead Town</ward_name><parliamentary_constituency_name>Hampstead and Kilburn</parliamentary_constituency_name><easting>526614</easting><northing>185439</northing><longitude>-0.175133</longitude><latitude>51.553641</latitude><location human_address="{&quot;address&quot;:&quot;&quot;,&quot;city&quot;:&quot;&quot;,&quot;state&quot;:&quot;&quot;,&quot;zip&quot;:&quot;&quot;}" latitude="51.553641" longitude="-0.175133" needs_recoding="false"/><spatial_accuracy>Local Land And Property Gazetteer</spatial_accuracy><socrata_id>2</socrata_id><last_uploaded>2019-04-23T08:48:00</last_uploaded></row><row _id="351" _uuid="083531EC-34C9-4807-8428-732363AEF3BF" _position="351" _address="https://opendata.camden.gov.uk/resource/_5rhh-fxna/351"><election_name>European Parliamentary Elections - 23 May 2019</election_name><polling_district_name>KB</polling_district_name><organisation>The Irish Centre</organisation><street>Camden Square</street><postcode>NW1 9XA</postcode><ward_name>Cantelowes</ward_name><parliamentary_constituency_name>Holborn and St. Pancras</parliamentary_constituency_name><easting>529617</easting><northing>184415</northing><longitude>-0.13222</longitude><latitude>51.543758</latitude><location human_address="{&quot;address&quot;:&quot;&quot;,&quot;city&quot;:&quot;&quot;,&quot;state&quot;:&quot;&quot;,&quot;zip&quot;:&quot;&quot;}" latitude="51.543758" longitude="-0.13222" needs_recoding="false"/><spatial_accuracy>Local Land And Property Gazetteer</spatial_accuracy><socrata_id>34</socrata_id><last_uploaded>2019-04-23T08:48:00</last_uploaded></row><row _id="352" _uuid="EB60FE30-E1F7-4B84-9D66-804F611F74E7" _position="352" _address="https://opendata.camden.gov.uk/resource/_5rhh-fxna/352"><election_name>European Parliamentary Elections - 23 May 2019</election_name><polling_district_name>CA</polling_district_name><organisation>St Luke's Church of England School</organisation><street>Kidderpore Avenue</street><postcode>NW3 7SU</postcode><ward_name>Frognal and Fitzjohns</ward_name><parliamentary_constituency_name>Hampstead and Kilburn</parliamentary_constituency_name><easting>525269</easting><northing>185902</northing><longitude>-0.194358</longitude><latitude>51.558102</latitude><location human_address="{&quot;address&quot;:&quot;&quot;,&quot;city&quot;:&quot;&quot;,&quot;state&quot;:&quot;&quot;,&quot;zip&quot;:&quot;&quot;}" latitude="51.558102" longitude="-0.194358" needs_recoding="false"/><spatial_accuracy>Local Land And Property Gazetteer</spatial_accuracy><socrata_id>7</socrata_id><last_uploaded>2019-04-23T08:48:00</last_uploaded></row><row _id="353" _uuid="8C4DC45E-9E53-4C74-BBAF-028E8D04570B" _position="353" _address="https://opendata.camden.gov.uk/resource/_5rhh-fxna/353"><election_name>European Parliamentary Elections - 23 May 2019</election_name><polling_district_name>PC</polling_district_name><organisation>Calthorpe Project</organisation><street>Gray's Inn Road</street><postcode>WC1X 8LH</postcode><ward_name>King's Cross</ward_name><parliamentary_constituency_name>Holborn and St. Pancras</parliamentary_constituency_name><easting>530678</easting><northing>182585</northing><longitude>-0.117607</longitude><latitude>51.527067</latitude><location human_address="{&quot;address&quot;:&quot;&quot;,&quot;city&quot;:&quot;&quot;,&quot;state&quot;:&quot;&quot;,&quot;zip&quot;:&quot;&quot;}" latitude="51.527067" longitude="-0.117607" needs_recoding="false"/><spatial_accuracy>Local Land And Property Gazetteer</spatial_accuracy><socrata_id>54</socrata_id><last_uploaded>2019-04-23T08:48:00</last_uploaded></row><row _id="354" _uuid="E59CD4E5-7E3B-4B09-B3C1-101EAE6D4480" _position="354" _address="https://opendata.camden.gov.uk/resource/_5rhh-fxna/354"><election_name>European Parliamentary Elections - 23 May 2019</election_name><polling_district_name>KA</polling_district_name><organisation>Kentish Town Health Centre</organisation><street>Bartholomew Road</street><postcode>NW5 2BX</postcode><ward_name>Cantelowes</ward_name><parliamentary_constituency_name>Holborn and St. Pancras</parliamentary_constituency_name><easting>529075</easting><northing>184696</northing><longitude>-0.139929</longitude><latitude>51.546407</latitude><location human_address="{&quot;address&quot;:&quot;&quot;,&quot;city&quot;:&quot;&quot;,&quot;state&quot;:&quot;&quot;,&quot;zip&quot;:&quot;&quot;}" latitude="51.546407" longitude="-0.139929" needs_recoding="false"/><spatial_accuracy>Local Land And Property Gazetteer</spatial_accuracy><socrata_id>33</socrata_id><last_uploaded>2019-04-23T08:48:00</last_uploaded></row><row _id="355" _uuid="6D25EFFD-4E30-4D49-B684-6D065519C0AD" _position="355" _address="https://opendata.camden.gov.uk/resource/_5rhh-fxna/355"><election_name>European Parliamentary Elections - 23 May 2019</election_name><polling_district_name>OA</polling_district_name><organisation>Agar Grove TA Lulworth Meeting Room</organisation><street>Wrotham Road</street><postcode>NW1 9SS</postcode><ward_name>St Pancras and Somers Town</ward_name><parliamentary_constituency_name>Holborn and St. Pancras</parliamentary_constituency_name><easting>529554</easting><northing>184206</northing><longitude>-0.133205</longitude><latitude>51.541894</latitude><location human_address="{&quot;address&quot;:&quot;&quot;,&quot;city&quot;:&quot;&quot;,&quot;state&quot;:&quot;&quot;,&quot;zip&quot;:&quot;&quot;}" latitude="51.541894" longitude="-0.133205" needs_recoding="false"/><spatial_accuracy>Local Land And Property Gazetteer</spatial_accuracy><socrata_id>47</socrata_id><last_uploaded>2019-04-23T08:48:00</last_uploaded></row><row _id="356" _uuid="A6C77A06-DE8E-48FD-BD5E-B4A3D72F897E" _position="356" _address="https://opendata.camden.gov.uk/resource/_5rhh-fxna/356"><election_name>European Parliamentary Elections - 23 May 2019</election_name><polling_district_name>DB</polling_district_name><organisation>Beckford Primary School</organisation><street>Dornfell Street</street><postcode>NW6 1QL</postcode><ward_name>Fortune Green</ward_name><parliamentary_constituency_name>Hampstead and Kilburn</parliamentary_constituency_name><easting>524934</easting><northing>185067</northing><longitude>-0.199484</longitude><latitude>51.550672</latitude><location human_address="{&quot;address&quot;:&quot;&quot;,&quot;city&quot;:&quot;&quot;,&quot;state&quot;:&quot;&quot;,&quot;zip&quot;:&quot;&quot;}" latitude="51.550672" longitude="-0.199484" needs_recoding="false"/><spatial_accuracy>Local Land And Property Gazetteer</spatial_accuracy><socrata_id>11</socrata_id><last_uploaded>2019-04-23T08:48:00</last_uploaded></row><row _id="357" _uuid="25C9BF93-A92E-433C-AD0F-11451EEDAF62" _position="357" _address="https://opendata.camden.gov.uk/resource/_5rhh-fxna/357"><election_name>European Parliamentary Elections - 23 May 2019</election_name><polling_district_name>OB</polling_district_name><organisation>St Pancras Community Centre</organisation><street>Plender Street</street><postcode>NW1 0LB</postcode><ward_name>St Pancras and Somers Town</ward_name><parliamentary_constituency_name>Holborn and St. Pancras</parliamentary_constituency_name><easting>529288</easting><northing>183600</northing><longitude>-0.137261</longitude><latitude>51.536509</latitude><location human_address="{&quot;address&quot;:&quot;&quot;,&quot;city&quot;:&quot;&quot;,&quot;state&quot;:&quot;&quot;,&quot;zip&quot;:&quot;&quot;}" latitude="51.536509" longitude="-0.137261" needs_recoding="false"/><spatial_accuracy>Local Land And Property Gazetteer</spatial_accuracy><socrata_id>48</socrata_id><last_uploaded>2019-04-23T08:48:00</last_uploaded></row><row _id="358" _uuid="C66F3FAD-479D-4855-9EEA-1C6319338AEA" _position="358" _address="https://opendata.camden.gov.uk/resource/_5rhh-fxna/358"><election_name>European Parliamentary Elections - 23 May 2019</election_name><polling_district_name>IB</polling_district_name><organisation>Kiln Place Tenants Association Hall</organisation><street>Kiln Place</street><postcode>NW5 4AP</postcode><ward_name>Gospel Oak</ward_name><parliamentary_constituency_name>Holborn and St. Pancras</parliamentary_constituency_name><easting>528276</easting><northing>185519</northing><longitude>-0.151145</longitude><latitude>51.553985</latitude><location human_address="{&quot;address&quot;:&quot;&quot;,&quot;city&quot;:&quot;&quot;,&quot;state&quot;:&quot;&quot;,&quot;zip&quot;:&quot;&quot;}" latitude="51.553985" longitude="-0.151145" needs_recoding="false"/><spatial_accuracy>Local Land And Property Gazetteer</spatial_accuracy><socrata_id>28</socrata_id><last_uploaded>2019-04-23T08:48:00</last_uploaded></row><row _id="359" _uuid="D18AC2EB-3877-4B7A-931C-8E1211F0B348" _position="359" _address="https://opendata.camden.gov.uk/resource/_5rhh-fxna/359"><election_name>European Parliamentary Elections - 23 May 2019</election_name><polling_district_name>HB</polling_district_name><organisation>Belsize Community Library</organisation><street>Antrim Road</street><postcode>NW3 4XN</postcode><ward_name>Belsize</ward_name><parliamentary_constituency_name>Hampstead and Kilburn</parliamentary_constituency_name><easting>527523</easting><northing>184823</northing><longitude>-0.162252</longitude><latitude>51.547901</latitude><location human_address="{&quot;address&quot;:&quot;&quot;,&quot;city&quot;:&quot;&quot;,&quot;state&quot;:&quot;&quot;,&quot;zip&quot;:&quot;&quot;}" latitude="51.547901" longitude="-0.162252" needs_recoding="false"/><spatial_accuracy>Local Land And Property Gazetteer</spatial_accuracy><socrata_id>25</socrata_id><last_uploaded>2019-04-23T08:48:00</last_uploaded></row><row _id="360" _uuid="0D475FC6-1802-4EEE-BEF3-50A85F6259D8" _position="360" _address="https://opendata.camden.gov.uk/resource/_5rhh-fxna/360"><election_name>European Parliamentary Elections - 23 May 2019</election_name><polling_district_name>JC</polling_district_name><organisation>Kentish Town Primary School</organisation><street>Islip Street</street><postcode>NW5 2TU</postcode><ward_name>Kentish Town</ward_name><parliamentary_constituency_name>Holborn and St. Pancras</parliamentary_constituency_name><easting>529113</easting><northing>185066</northing><longitude>-0.139245</longitude><latitude>51.549723</latitude><location human_address="{&quot;address&quot;:&quot;&quot;,&quot;city&quot;:&quot;&quot;,&quot;state&quot;:&quot;&quot;,&quot;zip&quot;:&quot;&quot;}" latitude="51.549723" longitude="-0.139245" needs_recoding="false"/><spatial_accuracy>Local Land And Property Gazetteer</spatial_accuracy><socrata_id>32</socrata_id><last_uploaded>2019-04-23T08:48:00</last_uploaded></row></row></response>